timestamp,mid,x,y,z,mpry,pitch,roll,yaw,vgx,vgy,vgz,templ,temph,tof,h,bat,baro,time,agx,agy,agz,t_s,vxy,h_fused,dt_s,flight_mask,yaw_unwrapped_deg,vx_body_m_s,vy_body_m_s,vz_odom_m_s,vx_world_m_s,vy_world_m_s,vz_fused_m_s,az_world_dyn_m_s2,z_meas_m,x_m,y_m,z_m,step_dist_2d_m,step_dist_3d_m,dist_2d_m,dist_3d_m
1773321529.36684,-1,-100,-100,-100,"0,0,0",0,0,0,0,0,0,50,53,10,0,100,2.93,0,5.0,-10.0,-999.0,0.0,0.0,6.0,0.1,0,0.0,0.0,0.0,0.0,0.0,0.0,0.0,-0.11323726762225306,0.06,0.0,0.0,0.0,0.0,0.0,0.0,0.0
1773321529.470332,-1,-100,-100,-100,"0,0,0",0,0,0,0,0,0,50,53,10,0,100,2.91,0,6.0,-10.0,-998.0,0.10349202156066895,0.0,6.0,0.10349202156066895,0,0.0,0.0,0.0,0.0,0.0,0.0,0.0,0.08676273237767873,0.06,0.0,0.0,0.0,0.0,0.0,0.0,0.0
1773321529.5709429,-1,-100,-100,-100,"0,0,0",0,0,0,0,0,0,50,53,10,0,100,2.91,0,5.0,-11.0,-996.0,0.2041029930114746,0.0,6.0,0.10061097145080566,0,0.0,0.0,0.0,0.0,0.0,0.0,0.0,0.6467627323776242,0.06,0.0,0.0,0.0,0.0,0.0,0.0,0.0
1773321529.697827,-1,-100,-100,-100,"0,0,0",0,0,0,0,0,0,50,53,10,0,100,2.93,0,5.0,-10.0,-1000.0,0.33098721504211426,0.0,6.0,0.12688422203063965,0,0.0,0.0,0.0,0.0,0.0,0.0,0.0,0.2947627323776487,0.06,0.0,0.0,0.0,0.0,0.0,0.0,0.0
1773321529.798134,-1,-100,-100,-100,"0,0,0",0,0,0,0,0,0,50,53,10,0,100,2.95,0,7.0,-10.0,-998.0,0.43129420280456543,0.0,6.0,0.10030698776245117,0,0.0,0.0,0.0,0.0,0.0,0.0,0.0,0.41316273237760015,0.06,0.0,0.0,0.0,0.0,0.0,0.0,0.0
1773321529.9032362,-1,-100,-100,-100,"0,0,0",0,0,0,0,0,0,50,53,10,0,100,2.95,0,6.0,-10.0,-1001.0,0.5363962650299072,0.0,6.0,0.1051020622253418,0,0.0,0.0,0.0,0.0,0.0,0.0,0.0,-0.09211726762248418,0.06,0.0,0.0,0.0,0.0,0.0,0.0,0.0
1773321530.005225,-1,-100,-100,-100,"0,0,0",0,0,0,0,0,0,50,53,10,0,100,2.87,0,5.0,-9.0,-1000.0,0.6383850574493408,0.0,6.0,0.1019887924194336,0,0.0,0.0,0.0,0.0,0.0,0.0,0.0,-0.29634126762243795,0.06,0.0,0.0,0.0,0.0,0.0,0.0,0.0
1773321530.156477,-1,-100,-100,-100,"0,0,0",0,0,0,0,0,0,50,53,10,0,100,2.92,0,6.0,-10.0,-999.0,0.7896370887756348,0.0,6.0,0.15125203132629395,0,0.0,0.0,0.0,0.0,0.0,0.0,0.0,-0.259720467622401,0.06,0.0,0.0,0.0,0.0,0.0,0.0,0.0
1773321530.257184,-1,-100,-100,-100,"0,0,0",0,0,0,0,0,0,50,53,10,0,100,2.99,0,5.0,-10.0,-999.0,0.8903441429138184,0.0,6.0,0.1007070541381836,0,0.0,0.0,0.0,0.0,0.0,0.0,0.0,-0.23042382762241687,0.06,0.0,0.0,0.0,0.0,0.0,0.0,0.0
1773321530.358138,-1,-100,-100,-100,"0,0,0",0,0,0,0,0,0,50,53,10,0,100,2.99,0,5.0,-9.0,-999.0,0.9912981986999512,0.0,6.0,0.10095405578613281,0,0.0,0.0,0.0,0.0,0.0,0.0,0.0,-0.20698651562247505,0.06,0.0,0.0,0.0,0.0,0.0,0.0,0.0
1773321530.459756,-1,-100,-100,-100,"0,0,0",0,0,0,0,0,0,50,53,10,0,100,2.93,0,7.0,-11.0,-1000.0,1.0929160118103027,0.0,6.0,0.10161781311035156,0,0.0,0.0,0.0,0.0,0.0,0.0,0.0,-0.3882366660225216,0.06,0.0,0.0,0.0,0.0,0.0,0.0,0.0
1773321530.563733,-1,-100,-100,-100,"0,0,0",0,0,0,0,0,0,50,53,10,0,100,2.93,0,6.0,-11.0,-999.0,1.1968932151794434,0.0,6.0,0.10397720336914062,0,0.0,0.0,0.0,0.0,0.0,0.0,0.0,-0.3332367863424679,0.06,0.0,0.0,0.0,0.0,0.0,0.0,0.0
1773321530.6644218,-1,-100,-100,-100,"0,0,0",0,0,0,0,0,0,50,53,10,0,100,2.9,0,5.0,-9.0,-998.0,1.2975819110870361,0.0,6.0,0.10068869590759277,0,0.0,0.0,0.0,0.0,0.0,0.0,0.0,-0.0892368825984704,0.06,0.0,0.0,0.0,0.0,0.0,0.0,0.0
1773321530.764649,-1,-100,-100,-100,"0,0,0",0,0,0,0,0,0,50,53,10,0,100,2.89,0,5.0,-10.0,-998.0,1.3978090286254883,0.0,6.0,0.10022711753845215,0,0.0,0.0,0.0,0.0,0.0,0.0,0.0,0.10596304039665938,0.06,0.0,0.0,0.0,0.0,0.0,0.0,0.0
1773321530.866337,-1,-100,-100,-100,"0,0,0",0,0,0,0,0,0,50,53,10,0,100,2.92,0,6.0,-11.0,-997.0,1.4994971752166748,0.0,6.0,0.10168814659118652,0,0.0,0.0,0.0,0.0,0.0,0.0,0.0,0.4621229787928769,0.06,0.0,0.0,0.0,0.0,0.0,0.0,0.0
1773321530.967107,-1,-100,-100,-100,"0,0,0",0,0,0,0,0,0,50,53,10,0,100,2.91,0,5.0,-11.0,-1000.0,1.6002671718597412,0.0,6.0,0.1007699966430664,0,0.0,0.0,0.0,0.0,0.0,0.0,0.0,0.14705092950975995,0.06,0.0,0.0,0.0,0.0,0.0,0.0,0.0
1773321531.072648,-1,-100,-100,-100,"0,0,0",0,0,0,0,0,0,50,53,10,0,100,2.9,0,6.0,-10.0,-999.0,1.705808162689209,0.0,6.0,0.10554099082946777,0,0.0,0.0,0.0,0.0,0.0,0.0,0.0,0.0949932900832664,0.06,0.0,0.0,0.0,0.0,0.0,0.0,0.0
1773321531.17413,-1,-100,-100,-100,"0,0,0",0,0,0,0,0,0,50,53,10,0,100,2.92,0,6.0,-10.0,-1002.0,1.8072900772094727,0.0,6.0,0.10148191452026367,0,0.0,0.0,0.0,0.0,0.0,0.0,0.0,-0.546652821457883,0.06,0.0,0.0,0.0,0.0,0.0,0.0,0.0
1773321531.276142,-1,-100,-100,-100,"0,0,0",0,0,0,0,0,0,50,53,10,0,100,2.93,0,6.0,-10.0,-998.0,1.909301996231079,0.0,6.0,0.10201191902160645,0,0.0,0.0,0.0,0.0,0.0,0.0,0.0,-0.2599697106908252,0.06,0.0,0.0,0.0,0.0,0.0,0.0,0.0
1773321531.3790069,-1,-100,-100,-100,"0,0,0",0,0,0,0,0,0,50,53,10,0,100,2.93,0,6.0,-10.0,-998.0,2.012166976928711,0.0,6.0,0.10286498069763184,0,0.0,0.0,0.0,0.0,0.0,0.0,0.0,-0.030623222077224455,0.06,0.0,0.0,0.0,0.0,0.0,0.0,0.0
1773321531.483252,-1,-100,-100,-100,"0,0,0",0,0,0,0,0,0,50,53,10,0,100,2.93,0,6.0,-10.0,-998.0,2.1164121627807617,0.0,6.0,0.10424518585205078,0,0.0,0.0,0.0,0.0,0.0,0.0,0.0,0.1528539688137016,0.06,0.0,0.0,0.0,0.0,0.0,0.0,0.0
1773321531.588494,-1,-100,-100,-100,"0,0,0",0,0,0,0,0,0,50,53,10,0,100,2.93,0,6.0,-10.0,-998.0,2.221654176712036,0.0,6.0,0.10524201393127441,0,0.0,0.0,0.0,0.0,0.0,0.0,0.0,0.29963572152644247,0.06,0.0,0.0,0.0,0.0,0.0,0.0,0.0
1773321531.690745,-1,-100,-100,-100,"0,0,0",0,0,0,0,0,0,51,53,10,0,100,2.93,0,6.0,-11.0,-999.0,2.3239052295684814,0.0,6.0,0.10225105285644531,0,0.0,0.0,0.0,0.0,0.0,0.0,0.0,0.21706112369656694,0.06,0.0,0.0,0.0,0.0,0.0,0.0,0.0
1773321531.7938502,-1,-100,-100,-100,"0,0,0",0,0,0,0,0,0,51,53,10,0,100,2.96,0,5.0,-9.0,-1000.0,2.4270102977752686,0.0,6.0,0.10310506820678711,0,0.0,0.0,0.0,0.0,0.0,0.0,0.0,-0.0489985545672198,0.06,0.0,0.0,0.0,0.0,0.0,0.0,0.0
1773321531.895203,-1,-100,-100,-100,"0,0,0",0,0,0,0,0,0,51,53,10,0,100,2.96,0,4.0,-9.0,-1001.0,2.5283632278442383,0.0,6.0,0.10135293006896973,0,0.0,0.0,0.0,0.0,0.0,0.0,0.0,-0.46184629717834014,0.06,0.0,0.0,0.0,0.0,0.0,0.0,0.0
1773321531.9953809,-1,-100,-100,-100,"0,0,0",0,0,0,0,0,0,51,53,10,0,100,2.98,0,6.0,-11.0,-997.0,2.6285409927368164,0.0,6.0,0.10017776489257812,0,0.0,0.0,0.0,0.0,0.0,0.0,0.0,0.007875508732809067,0.06,0.0,0.0,0.0,0.0,0.0,0.0,0.0
1773321532.100202,-1,-100,-100,-100,"0,0,0",0,0,0,0,0,0,51,53,10,0,100,2.97,0,6.0,-10.0,-999.0,2.7333621978759766,0.0,6.0,0.10482120513916016,0,0.0,0.0,0.0,0.0,0.0,0.0,0.0,-0.016347046538157883,0.06,0.0,0.0,0.0,0.0,0.0,0.0,0.0
1773321532.204062,-1,-100,-100,-100,"0,0,0",0,0,0,0,0,0,51,53,10,0,100,2.93,0,6.0,-10.0,-998.0,2.837222099304199,0.0,6.0,0.10385990142822266,0,0.0,0.0,0.0,0.0,0.0,0.0,0.0,0.1642749092449094,0.06,0.0,0.0,0.0,0.0,0.0,0.0,0.0
1773321532.307738,-1,-100,-100,-100,"0,0,0",0,0,0,0,0,0,51,53,10,0,100,2.94,0,7.0,-12.0,-999.0,2.9408981800079346,0.0,6.0,0.10367608070373535,0,0.0,0.0,0.0,0.0,0.0,0.0,0.0,0.10877247387134048,0.06,0.0,0.0,0.0,0.0,0.0,0.0,0.0
1773321532.4082408,-1,-100,-100,-100,"0,0,0",0,0,0,0,0,0,50,52,10,0,100,2.93,0,6.0,-10.0,-999.0,3.041400909423828,0.0,6.0,0.10050272941589355,0,0.0,0.0,0.0,0.0,0.0,0.0,0.0,0.06437052557248535,0.06,0.0,0.0,0.0,0.0,0.0,0.0,0.0
1773321532.511692,-1,-100,-100,-100,"0,0,0",0,0,0,0,0,0,50,52,10,0,100,2.96,0,6.0,-9.0,-996.0,3.1448521614074707,0.0,6.0,0.10345125198364258,0,0.0,0.0,0.0,0.0,0.0,0.0,0.0,0.6288489669334467,0.06,0.0,0.0,0.0,0.0,0.0,0.0,0.0
1773321532.612894,-1,-100,-100,-100,"0,0,0",0,0,0,0,0,0,50,52,10,0,100,2.97,0,6.0,-9.0,-999.0,3.246054172515869,0.0,6.0,0.10120201110839844,0,0.0,0.0,0.0,0.0,0.0,0.0,0.0,0.48043172002235224,0.06,0.0,0.0,0.0,0.0,0.0,0.0,0.0
1773321532.713398,-1,-100,-100,-100,"0,0,0",0,0,0,0,0,0,50,52,10,0,100,2.94,0,5.0,-10.0,-997.0,3.346558094024658,0.0,6.0,0.10050392150878906,0,0.0,0.0,0.0,0.0,0.0,0.0,0.0,0.7616979224934539,0.06,0.0,0.0,0.0,0.0,0.0,0.0,0.0
1773321532.815895,-1,-100,-100,-100,"0,0,0",0,0,0,0,0,0,50,52,10,0,100,2.94,0,6.0,-10.0,-999.0,3.4490551948547363,0.0,6.0,0.10249710083007812,0,0.0,0.0,0.0,0.0,0.0,0.0,0.0,0.5867108844702216,0.06,0.0,0.0,0.0,0.0,0.0,0.0,0.0
1773321532.9210272,-1,-100,-100,-100,"0,0,0",0,0,0,0,0,0,50,52,10,0,100,2.95,0,4.0,-9.0,-998.0,3.554187297821045,0.0,6.0,0.1051321029663086,0,0.0,0.0,0.0,0.0,0.0,0.0,0.0,0.646721254051613,0.06,0.0,0.0,0.0,0.0,0.0,0.0,0.0
1773321533.021608,-1,-100,-100,-100,"0,0,0",0,0,0,0,0,0,50,52,10,0,100,2.93,0,6.0,-10.0,-998.0,3.654768228530884,0.0,6.0,0.10058093070983887,0,0.0,0.0,0.0,0.0,0.0,0.0,0.0,0.6947295497167261,0.06,0.0,0.0,0.0,0.0,0.0,0.0,0.0
1773321533.123219,-1,-100,-100,-100,"0,0,0",0,0,0,0,0,0,50,52,10,0,100,2.95,0,5.0,-9.0,-999.0,3.7563791275024414,0.0,6.0,0.10161089897155762,0,0.0,0.0,0.0,0.0,0.0,0.0,0.0,0.5331361862488393,0.06,0.0,0.0,0.0,0.0,0.0,0.0,0.0
1773321533.225353,-1,-100,-100,-100,"0,0,0",0,0,0,0,0,0,50,52,10,0,100,2.98,0,5.0,-11.0,-997.0,3.858513116836548,0.0,6.0,0.10213398933410645,0,0.0,0.0,0.0,0.0,0.0,0.0,0.0,0.8038614954746208,0.06,0.0,0.0,0.0,0.0,0.0,0.0,0.0
1773321533.3293152,-1,-100,-100,-100,"0,0,0",0,0,0,0,0,0,50,52,10,0,100,2.91,0,5.0,-13.0,-997.0,3.962475299835205,0.0,6.0,0.10396218299865723,0,0.0,0.0,0.0,0.0,0.0,0.0,0.0,1.0204417428552688,0.06,0.0,0.0,0.0,0.0,0.0,0.0,0.0
1773321533.431328,-1,-100,-100,-100,"0,0,0",0,0,0,0,0,0,51,52,10,0,100,2.93,0,4.0,-10.0,-998.0,4.064488172531128,0.0,6.0,0.10201287269592285,0,0.0,0.0,0.0,0.0,0.0,0.0,0.0,0.9937059407596962,0.06,0.0,0.0,0.0,0.0,0.0,0.0,0.0
1773321533.533386,-1,-100,-100,-100,"0,0,0",0,0,0,0,0,0,51,52,10,0,100,2.95,0,6.0,-9.0,-995.0,4.166546106338501,0.0,6.0,0.10205793380737305,0,0.0,0.0,0.0,0.0,0.0,0.0,0.0,1.5723172990832381,0.06,0.0,0.0,0.0,0.0,0.0,0.0,0.0
1773321533.635297,-1,-100,-100,-100,"0,0,0",0,0,0,0,0,0,51,52,10,0,100,2.92,0,6.0,-11.0,-1000.0,4.2684571743011475,0.0,6.0,0.10191106796264648,0,0.0,0.0,0.0,0.0,0.0,0.0,0.0,1.0352063857420717,0.06,0.0,0.0,0.0,0.0,0.0,0.0,0.0
1773321533.738184,-1,-100,-100,-100,"0,0,0",0,0,0,0,0,0,51,52,10,0,100,3.01,0,5.0,-9.0,-997.0,4.371344089508057,0.0,6.0,0.10288691520690918,0,0.0,0.0,0.0,0.0,0.0,0.0,0.0,1.2055176550692295,0.06,0.0,0.0,0.0,0.0,0.0,0.0,0.0
1773321533.8396642,-1,-100,-100,-100,"0,0,0",0,0,0,0,0,0,51,52,10,0,100,2.99,0,5.0,-10.0,-997.0,4.472824335098267,0.0,6.0,0.10148024559020996,0,0.0,0.0,0.0,0.0,0.0,0.0,0.0,1.3417666705308875,0.06,0.0,0.0,0.0,0.0,0.0,0.0,0.0
1773321533.941751,-1,-100,-100,-100,"0,0,0",0,0,0,0,0,0,51,52,10,0,100,2.99,0,5.0,-10.0,-997.0,4.574911117553711,0.0,6.0,0.10208678245544434,0,0.0,0.0,0.0,0.0,0.0,0.0,0.0,1.450765882900214,0.06,0.0,0.0,0.0,0.0,0.0,0.0,0.0
1773321534.043826,-1,-100,-100,-100,"0,0,0",0,0,0,0,0,0,51,52,10,0,100,2.95,0,4.0,-9.0,-1000.0,4.676986217498779,0.0,6.0,0.10207509994506836,0,0.0,0.0,0.0,0.0,0.0,0.0,0.0,0.9379652527957205,0.06,0.0,0.0,0.0,0.0,0.0,0.0,0.0
1773321534.145251,-1,-100,-100,-100,"0,0,0",0,0,0,0,0,0,51,52,10,0,100,2.95,0,4.0,-9.0,-1000.0,4.778411149978638,0.0,6.0,0.1014249324798584,0,0.0,0.0,0.0,0.0,0.0,0.0,0.0,0.5277247487121031,0.06,0.0,0.0,0.0,0.0,0.0,0.0,0.0
1773321534.247253,-1,-100,-100,-100,"0,0,0",0,0,0,0,0,0,51,52,10,0,100,2.94,0,5.0,-10.0,-999.0,4.880413055419922,0.0,6.0,0.10200190544128418,0,0.0,0.0,0.0,0.0,0.0,0.0,0.0,0.3995323454450954,0.06,0.0,0.0,0.0,0.0,0.0,0.0,0.0
1773321534.348494,-1,-100,-100,-100,"0,0,0",0,0,0,0,0,0,51,52,10,0,100,2.94,0,6.0,-9.0,-1000.0,4.981654167175293,0.0,6.0,0.1012411117553711,0,0.0,0.0,0.0,0.0,0.0,0.0,0.0,0.09697842283162572,0.06,0.0,0.0,0.0,0.0,0.0,0.0,0.0
1773321534.451218,-1,-100,-100,-100,"0,0,0",0,0,0,0,0,0,50,52,10,0,100,2.97,0,6.0,-10.0,-997.0,5.084378004074097,0.0,6.0,0.10272383689880371,0,0.0,0.0,0.0,0.0,0.0,0.0,0.0,0.45493528474082723,0.06,0.0,0.0,0.0,0.0,0.0,0.0,0.0
1773321534.5533462,-1,-100,-100,-100,"0,0,0",0,0,0,0,0,0,50,52,10,0,100,2.95,0,4.0,-11.0,-1001.0,5.186506271362305,0.0,6.0,0.10212826728820801,0,0.0,0.0,0.0,0.0,0.0,0.0,0.0,-0.05869922573185704,0.06,0.0,0.0,0.0,0.0,0.0,0.0,0.0
1773321534.656193,-1,-100,-100,-100,"0,0,0",0,0,0,0,0,0,50,52,10,0,100,2.98,0,4.0,-10.0,-1000.0,5.289353132247925,0.0,6.0,0.10284686088562012,0,0.0,0.0,0.0,0.0,0.0,0.0,0.0,-0.26960683410993624,0.06,0.0,0.0,0.0,0.0,0.0,0.0,0.0
1773321534.761215,-1,-100,-100,-100,"0,0,0",0,0,0,0,0,0,50,52,10,0,100,2.95,0,5.0,-10.0,-998.0,5.3943750858306885,0.0,6.0,0.10502195358276367,0,0.0,0.0,0.0,0.0,0.0,0.0,0.0,-0.038332920812422344,0.06,0.0,0.0,0.0,0.0,0.0,0.0,0.0
1773321534.8641012,-1,-100,-100,-100,"0,0,0",0,0,0,0,0,0,50,52,10,0,100,2.96,0,6.0,-10.0,-1001.0,5.49726128578186,0.0,6.0,0.10288619995117188,0,0.0,0.0,0.0,0.0,0.0,0.0,0.0,-0.45331379017443396,0.06,0.0,0.0,0.0,0.0,0.0,0.0,0.0
1773321534.966594,-1,-100,-100,-100,"0,0,0",0,0,0,0,0,0,50,52,10,0,100,2.98,0,7.0,-10.0,-996.0,5.599754095077515,0.0,6.0,0.1024928092956543,0,0.0,0.0,0.0,0.0,0.0,0.0,0.0,0.21470151433595674,0.06,0.0,0.0,0.0,0.0,0.0,0.0,0.0
1773321535.071935,-1,-100,-100,-100,"0,0,0",0,0,0,0,0,0,50,52,10,0,100,2.92,0,6.0,-11.0,-1000.0,5.705095052719116,0.0,6.0,0.10534095764160156,0,0.0,0.0,0.0,0.0,0.0,0.0,0.0,-0.05088624205575343,0.06,0.0,0.0,0.0,0.0,0.0,0.0,0.0
1773321535.1742258,-1,-100,-100,-100,"0,0,0",0,0,0,0,0,0,50,52,10,0,100,2.93,0,6.0,-10.0,-998.0,5.8073859214782715,0.0,6.0,0.10229086875915527,0,0.0,0.0,0.0,0.0,0.0,0.0,0.0,0.13664355283083296,0.06,0.0,0.0,0.0,0.0,0.0,0.0,0.0
1773321535.278691,-1,-100,-100,-100,"0,0,0",0,0,0,0,0,0,50,52,10,0,100,2.96,0,6.0,-10.0,-1000.0,5.911851167678833,0.0,6.0,0.10446524620056152,0,0.0,0.0,0.0,0.0,0.0,0.0,0.0,-0.11333261125980698,0.06,0.0,0.0,0.0,0.0,0.0,0.0,0.0
1773321535.382796,-1,-100,-100,-100,"0,0,0",0,0,0,0,0,0,51,54,10,0,100,2.98,0,5.0,-9.0,-1001.0,6.015956163406372,0.0,6.0,0.10410499572753906,0,0.0,0.0,0.0,0.0,0.0,0.0,0.0,-0.5133135425323871,0.06,0.0,0.0,0.0,0.0,0.0,0.0,0.0
1773321535.486433,-1,-100,-100,-100,"0,0,0",0,0,0,0,0,0,51,54,10,0,100,2.98,0,6.0,-11.0,-1000.0,6.119593143463135,0.0,6.0,0.1036369800567627,0,0.0,0.0,0.0,0.0,0.0,0.0,0.0,-0.6332982875503603,0.06,0.0,0.0,0.0,0.0,0.0,0.0,0.0
1773321535.5918531,-1,-100,-100,-100,"0,0,0",0,0,0,0,0,0,51,54,10,0,100,2.94,0,9.0,-23.0,-987.0,6.225013256072998,0.0,6.0,0.10542011260986328,0,0.0,0.0,0.0,0.0,0.0,0.0,0.0,1.870713916435193,0.06,0.0,0.0,0.0,0.0,0.0,0.0,0.0
1773321535.6936488,-1,-100,-100,-100,"0,0,0",0,0,0,0,0,0,51,54,10,0,100,2.95,0,3.0,-14.0,-1000.0,6.326808929443359,0.0,6.0,0.10179567337036133,0,0.0,0.0,0.0,0.0,0.0,0.0,0.0,1.2739236796236355,0.06,0.0,0.0,0.0,0.0,0.0,0.0,0.0
1773321535.7961988,-1,-100,-100,-100,"0,0,0",0,0,0,0,0,0,51,54,10,0,100,2.99,0,10.0,-3.0,-1001.0,6.429358959197998,0.0,6.0,0.10255002975463867,0,0.0,0.0,0.0,0.0,0.0,0.0,0.0,0.5964914901743441,0.06,0.0,0.0,0.0,0.0,0.0,0.0,0.0
1773321535.896922,-1,-100,-100,-100,"0,0,0",0,0,0,0,0,0,51,54,10,0,100,3.01,0,5.0,-15.0,-995.0,6.5300822257995605,0.0,6.0,0.1007232666015625,0,0.0,0.0,0.0,0.0,0.0,0.0,0.0,1.2545457386149792,0.06,0.0,0.0,0.0,0.0,0.0,0.0,0.0
1773321536.000611,-1,-100,-100,-100,"0,0,0",0,0,0,0,0,0,51,54,10,0,100,3.0,0,6.0,-14.0,-996.0,6.633771181106567,0.0,6.0,0.10368895530700684,0,0.0,0.0,0.0,0.0,0.0,0.0,0.0,1.5809891373673963,0.06,0.0,0.0,0.0,0.0,0.0,0.0,0.0
1773321536.103193,-1,-100,-100,-100,"0,0,0",0,0,0,0,0,0,51,54,10,0,100,3.0,0,16.0,-10.0,-992.0,6.736353158950806,0.0,6.0,0.10258197784423828,0,0.0,0.0,0.0,0.0,0.0,0.0,0.0,2.6421438563694437,0.06,0.0,0.0,0.0,0.0,0.0,0.0,0.0
1773321536.20723,-1,-100,-100,-100,"0,0,0",0,0,0,0,0,0,51,54,10,0,100,3.0,0,12.0,21.0,-994.0,6.840390205383301,0.0,6.0,0.10403704643249512,0,0.0,0.0,0.0,0.0,0.0,0.0,0.0,3.09106763157115,0.06,0.0,0.0,0.0,0.0,0.0,0.0,0.0
1773321536.3096042,-1,-100,-100,-100,"0,0,0",0,0,0,0,0,0,51,54,10,0,100,3.0,0,-6.0,-3.0,-1015.0,6.9427642822265625,0.0,6.0,0.10237407684326172,0,0.0,0.0,0.0,0.0,0.0,0.0,0.0,-0.7497933482675307,0.06,0.0,0.0,0.0,0.0,0.0,0.0,0.0
1773321536.415027,-1,-100,-100,-100,"0,0,0",0,0,0,0,0,0,50,54,10,0,100,3.0,0,23.0,-3.0,-1029.0,7.048187017440796,0.0,6.0,0.1054227352142334,0,0.0,0.0,0.0,0.0,0.0,0.0,0.0,-4.0,0.06,0.0,0.0,0.0,0.0,0.0,0.0,0.0
1773321536.5205371,-1,-100,-100,-100,"0,0,0",-1,1,0,0,0,0,50,54,10,0,100,3.0,0,17.0,-5.0,-1130.0,7.15369725227356,0.0,6.0,0.10551023483276367,0,0.0,0.0,0.0,0.0,0.0,0.0,0.0,-4.0,0.06,0.0,0.0,0.0,0.0,0.0,0.0,0.0
1773321536.626118,-1,-100,-100,-100,"0,0,0",-2,0,0,0,0,2,50,54,16,0,100,3.0,0,-21.0,-1.0,-1303.0,7.259278059005737,0.0,9.6,0.10558080673217773,0,0.0,0.0,0.0,0.0,0.0,0.0,-0.042232322692871097,-4.0,0.096,0.0,0.0,0.03572464637994781,0.0,0.03572464637994781,0.0,0.03572464637994781
1773321536.731555,-1,-100,-100,-100,"0,0,0",0,0,0,0,0,5,50,54,13,0,100,3.0,0,52.0,-12.0,-1280.0,7.364715099334717,0.0,7.8,0.10543704032897949,0,0.0,0.0,0.0,0.0,0.0,0.0,-0.04639804840087891,-4.0,0.078,0.0,0.0,0.04969954408771104,0.0,0.01397489770776323,0.0,0.04969954408771104
1773321536.836992,-1,-100,-100,-100,"0,0,0",2,-1,0,0,0,7,50,54,16,10,100,3.18,0,-5.0,-18.0,-1157.0,7.470152139663696,0.0,13.6,0.10543704032897949,1,0.0,0.0,0.0,0.0296875,0.0,0.0,-0.02009587097167969,-4.0,0.136,0.0,0.0,0.08294841695777445,0.0,0.033248872870063416,0.0,0.08294841695777445
1773321536.937533,-1,-100,-100,-100,"0,0,0",1,-1,0,0,0,8,50,54,22,10,100,3.31,0,-2.0,-4.0,-1061.0,7.570693016052246,0.0,17.2,0.1005408763885498,1,0.0,0.0,0.0,0.042265625,0.0,0.0,-0.004186875152587886,-4.0,0.172,0.0,0.0,0.1183164789163623,0.0,0.03536806195858784,0.0,0.1183164789163623
1773321537.043006,-1,-100,-100,-100,"0,0,0",0,0,0,0,0,8,50,54,31,20,100,3.36,1,11.0,-4.0,-1013.0,7.67616605758667,0.0,26.599999999999998,0.10547304153442383,1,0.0,0.0,0.0,0.05169921875,0.0,0.0,0.003921392745971683,-4.0,0.26599999999999996,0.0,0.0,0.17763804808179856,0.0,0.059321569165436266,0.0,0.17763804808179856
1773321537.148436,-1,-100,-100,-100,"0,0,0",0,0,0,0,0,8,50,54,40,30,100,3.43,1,-5.0,8.0,-946.0,7.7815961837768555,0.0,36.0,0.10543012619018555,1,0.0,0.0,0.0,0.0587744140625,0.0,0.0,0.011117061454772953,-4.0,0.36,0.0,0.0,0.2512860727643036,0.0,0.07364802468250503,0.0,0.2512860727643036
1773321537.253896,-1,-100,-100,-100,"0,0,0",0,0,0,0,0,7,50,54,47,40,100,3.57,1,-11.0,-5.0,-894.0,7.887056112289429,0.0,44.2,0.10545992851257324,1,0.0,0.0,0.0,0.061580810546875,0.0,0.0,0.014350464232635501,-4.0,0.442,0.0,0.0,0.3284796830178397,0.0,0.0771936102535361,0.0,0.3284796830178397
1773321537.356065,-1,-100,-100,-100,"0,0,0",0,0,0,0,0,6,50,54,54,40,100,3.64,1,-7.0,9.0,-886.0,7.989225149154663,0.0,48.4,0.10216903686523438,1,0.0,0.0,0.0,0.06118560791015625,0.0,0.0,0.02024200733221175,-3.5490288763337503,0.484,0.0,0.0,0.39192867364671446,0.0,0.06344899062887477,0.0,0.39192867364671446
1773321537.460038,-1,-100,-100,-100,"0,0,0",0,0,0,0,0,4,51,53,60,50,100,3.72,1,1.0,28.0,-873.0,8.09319806098938,0.0,56.0,0.1039729118347168,1,0.0,0.0,0.0,0.05588920593261719,0.0,0.0,0.09391365080646337,4.0,0.56,0.0,0.0,0.4650158896292548,0.0,0.07308721598254031,0.0,0.4650158896292548
1773321537.5619168,-1,-100,-100,-100,"0,0,0",0,0,0,0,0,3,51,53,65,50,100,3.8,1,-36.0,1.0,-867.0,8.195076942443848,0.0,59.0,0.10187888145446777,1,0.0,0.0,0.0,0.04941690444946289,0.0,0.0,0.09461813166695004,4.0,0.59,0.0,0.0,0.5207932874292771,0.0,0.05577739780002233,0.0,0.5207932874292771
1773321537.6626098,-1,-100,-100,-100,"0,0,0",0,0,0,0,0,2,51,53,69,50,100,3.84,1,-23.0,-7.0,-899.0,8.295769929885864,0.0,61.4,0.1006929874420166,1,0.0,0.0,0.0,0.04206267833709717,0.0,0.0,0.0875954186468891,4.0,0.614,0.0,0.0,0.5633681190914399,0.0,0.042574831662162804,0.0,0.5633681190914399
1773321537.765959,-1,-100,-100,-100,"0,0,0",0,0,0,0,0,1,51,53,72,60,100,3.87,1,-4.0,10.0,-919.0,8.399119138717651,0.0,67.19999999999999,0.10334920883178711,1,0.0,0.0,0.0,0.03404700875282288,0.0,0.0,0.08074153327494435,4.0,0.6719999999999999,0.0,0.0,0.6118276156051625,0.0,0.04845949651372261,0.0,0.6118276156051625
1773321537.867949,-1,-100,-100,-100,"0,0,0",0,0,0,0,0,1,51,53,75,60,100,3.92,1,-30.0,5.0,-916.0,8.50110912322998,0.0,69.0,0.1019899845123291,1,0.0,0.0,0.0,0.028035256564617157,0.0,0.0,0.07410187804058152,4.0,0.69,0.0,0.0,0.6476311589993136,0.0,0.03580354339415104,0.0,0.6476311589993136
1773321537.973675,-1,-100,-100,-100,"0,0,0",0,0,0,0,0,0,51,53,79,60,100,3.92,2,0.0,1.0,-990.0,8.606835126876831,0.0,71.4,0.10572600364685059,1,0.0,0.0,0.0,0.02102644242346287,0.0,0.0,0.06862438744391497,4.0,0.7140000000000001,0.0,0.0,0.6785319247418831,0.0,0.030900765742569503,0.0,0.6785319247418831
1773321538.074145,-1,-100,-100,-100,"0,0,0",0,0,0,0,0,0,51,53,80,60,100,3.96,2,-9.0,10.0,-976.0,8.707305192947388,0.0,72.0,0.10047006607055664,1,0.0,0.0,0.0,0.01576983181759715,0.0,0.0,0.06124331380845159,4.0,0.72,0.0,0.0,0.6988110267159588,0.0,0.020279101974075786,0.0,0.6988110267159588
1773321538.177991,-1,-100,-100,-100,"0,0,0",0,0,0,0,0,0,51,53,81,60,100,3.99,2,-8.0,4.0,-992.0,8.811151027679443,0.0,72.6,0.10384583473205566,1,0.0,0.0,0.0,0.011827373863197863,0.0,0.0,0.05830730175054551,4.0,0.726,0.0,0.0,0.7133195982823308,0.0,0.014508571566371975,0.0,0.7133195982823308
1773321538.2791328,-1,-100,-100,-100,"0,0,0",0,0,0,0,0,0,51,53,85,60,100,3.94,2,-13.0,8.0,-1000.0,8.912292957305908,0.0,75.0,0.10114192962646484,1,0.0,0.0,0.0,0.008870530397398397,0.0,0.0,0.05427097938329905,4.0,0.75,0.0,0.0,0.7312852019159255,0.0,0.017965603633594673,0.0,0.7312852019159255
1773321538.384444,-1,-100,-100,-100,"0,0,0",0,0,0,0,0,0,51,54,87,70,100,3.97,2,5.0,-6.0,-1009.0,9.017604112625122,0.0,80.19999999999999,0.10531115531921387,1,0.0,0.0,0.0,0.006652897798048798,0.0,0.0,0.053539168084259375,4.0,0.8019999999999999,0.0,0.0,0.762954084137025,0.0,0.03166888222109954,0.0,0.762954084137025
1773321538.486403,-1,-100,-100,-100,"0,0,0",0,0,0,0,0,0,51,54,88,70,100,3.96,2,-20.0,10.0,-971.0,9.119563102722168,0.0,80.8,0.1019589900970459,1,0.0,0.0,0.0,0.004989673348536599,0.0,0.0,0.05062821886092724,4.0,0.8079999999999999,0.0,0.0,0.7840696517214985,0.0,0.021115567584473416,0.0,0.7840696517214985
1773321538.587636,-1,-100,-100,-100,"0,0,0",0,0,0,0,0,0,51,54,89,70,100,3.97,2,-3.0,-13.0,-993.0,9.22079610824585,0.0,81.4,0.10123300552368164,1,0.0,0.0,0.0,0.0037422550114024488,0.0,0.0,0.048924053605827585,4.0,0.8140000000000001,0.0,0.0,0.7990134284262509,0.0,0.014943776704752443,0.0,0.7990134284262509
1773321538.6888251,-1,-100,-100,-100,"0,0,0",0,0,0,0,0,0,51,54,89,70,100,4.0,2,-8.0,7.0,-968.0,9.321985244750977,0.0,81.4,0.10118913650512695,1,0.0,0.0,0.0,0.0028066912585518367,0.0,0.0,0.0478940820953302,4.0,0.8140000000000001,0.0,0.0,0.8079158735423099,0.0,0.008902445116058977,0.0,0.8079158735423099
1773321538.7900212,-1,-100,-100,-100,"0,0,0",0,0,0,0,0,0,51,54,90,70,100,4.03,2,-13.0,-18.0,-964.0,9.423181295394897,0.0,82.0,0.1011960506439209,1,0.0,0.0,0.0,0.0021050184439138776,0.0,0.0,0.047162345066623874,4.0,0.82,0.0,0.0,0.8156131099612949,0.0,0.0076972364189850095,0.0,0.8156131099612949
1773321538.8931131,-1,-100,-100,-100,"0,0,0",0,0,0,0,0,0,51,54,90,70,100,3.98,2,0.0,4.0,-994.0,9.526273250579834,0.0,82.0,0.10309195518493652,1,0.0,0.0,0.0,0.001578763832935408,0.0,0.0,0.047373904030278864,4.0,0.82,0.0,0.0,0.8202981870115119,0.0,0.004685077050217035,0.0,0.8202981870115119
1773321538.9938629,-1,-100,-100,-100,"0,0,0",0,0,0,0,0,0,51,54,90,70,100,3.98,3,-9.0,-1.0,-989.0,9.627022981643677,0.0,82.0,0.10074973106384277,1,0.0,0.0,0.0,0.0011840728747015562,0.0,0.0,0.0461029484157964,4.0,0.82,0.0,0.0,0.8229658279993921,0.0,0.002667640987880193,0.0,0.8229658279993921
1773321539.09425,-1,-100,-100,-100,"0,0,0",0,0,0,0,0,0,51,54,90,70,100,3.99,3,-5.0,0.0,-988.0,9.727410078048706,0.0,82.0,0.1003870964050293,1,0.0,0.0,0.0,0.0008880546560261671,0.0,0.0,0.04556438259401492,4.0,0.82,0.0,0.0,0.8245239424404959,0.0,0.001558114441103764,0.0,0.8245239424404959
1773321539.1948428,-1,-100,-100,-100,"0,0,0",0,0,0,0,0,0,51,54,89,70,100,4.0,3,3.0,1.0,-992.0,9.8280029296875,0.0,81.4,0.10059285163879395,1,0.0,0.0,0.0,0.0006660409920196253,0.0,0.0,0.045393015807736734,4.0,0.8140000000000001,0.0,0.0,0.8230540932070487,0.0,0.0014698492334471736,0.0,0.825993791673943
1773321539.299632,-1,-100,-100,-100,"0,0,0",0,0,0,0,0,0,51,54,89,70,100,3.98,3,-7.0,1.0,-970.0,9.93279218673706,0.0,81.4,0.10478925704956055,1,0.0,0.0,0.0,0.000499530744014719,0.0,0.0,0.04690458207021114,4.0,0.8140000000000001,0.0,0.0,0.8223815137086438,0.0,0.0006725794984049349,0.0,0.826666371172348
1773321539.40253,-1,-100,-100,-100,"0,0,0",0,0,0,0,0,0,51,54,88,70,100,3.99,3,-10.0,-2.0,-990.0,10.035690069198608,0.0,80.8,0.10289788246154785,1,0.0,0.0,0.0,0.0003746480580110392,0.0,0.0,0.046186794443850196,4.0,0.8079999999999999,0.0,0.0,0.8194804222327616,0.0,0.002901091475882134,0.0,0.8295674626482301
1773321539.508051,-1,-100,-100,-100,"0,0,0",0,0,0,0,0,0,51,54,87,70,100,4.0,3,-21.0,8.0,-984.0,10.141211032867432,0.0,80.19999999999999,0.10552096366882324,1,0.0,0.0,0.0,0.00028098604350827944,0.0,0.0,0.04707995235107178,4.0,0.8019999999999999,0.0,0.0,0.8154690065045973,0.0,0.004011415728164325,0.0,0.8335788783763944
1773321539.613487,-1,-100,-100,-100,"0,0,0",0,0,0,0,0,0,51,54,87,70,100,3.98,3,13.0,3.0,-1018.0,10.246647119522095,0.0,80.19999999999999,0.10543608665466309,1,0.0,0.0,0.0,0.00021073953263120955,0.0,0.0,0.0470720954763405,4.0,0.8019999999999999,0.0,0.0,0.8130592624253543,0.0,0.0024097440792429925,0.0,0.8359886224556374
1773321539.7189162,-1,-100,-100,-100,"0,0,0",0,0,0,0,0,0,51,54,86,70,100,4.02,3,-33.0,-6.0,-996.0,10.352076292037964,0.0,79.6,0.10542917251586914,1,0.0,0.0,0.0,0.00015805464947340719,0.0,0.0,0.04702112773850777,4.0,0.7959999999999999,0.0,0.0,0.809209996608153,0.0,0.0038492658172013527,0.0,0.8398378882728388
1773321539.824412,-1,-100,-100,-100,"0,0,0",0,0,0,0,0,0,51,54,85,70,100,3.97,3,20.0,5.0,-1019.0,10.457572221755981,0.0,79.0,0.10549592971801758,1,0.0,0.0,0.0,0.00011854098710505538,0.0,0.0,0.026932944590450675,2.09715625876197,0.79,0.0,0.0,0.8032307875826599,0.0,0.005979209025493093,0.0,0.8458170972983319
1773321539.927026,-1,-100,-100,-100,"0,0,0",0,0,0,0,0,0,51,54,84,70,100,4.07,3,13.0,-6.0,-1010.0,10.56018614768982,0.0,78.4,0.10261392593383789,1,0.0,0.0,0.0,8.890574032879155e-05,0.0,0.0,-0.0028183535312953276,-0.5449224465148745,0.784,0.0,0.0,0.7953649511572866,0.0,0.007865836425373307,0.0,0.8536829337237052
1773321540.031152,-1,-100,-100,-100,"0,0,0",0,0,0,0,0,0,51,54,83,70,100,4.05,4,-1.0,-9.0,-1002.0,10.66431212425232,0.0,77.8,0.1041259765625,1,0.0,0.0,0.0,6.667930524659366e-05,0.0,0.0,-0.011244447945181126,-1.0585854107363275,0.778,0.0,0.0,0.7877164672204531,0.0,0.007648483936833483,0.0,0.8613314176605387
1773321540.136607,-1,-100,-100,-100,"0,0,0",0,0,0,0,0,0,51,54,83,70,100,4.08,4,-13.0,-22.0,-1009.0,10.769767045974731,0.0,77.8,0.10545492172241211,1,0.0,0.0,0.0,5.000947893494523e-05,0.0,0.0,-0.031339892481876845,-2.869515782113467,0.778,0.0,0.0,0.7818469127871928,0.0,0.0058695544332603156,0.0,0.867200972093799
1773321540.239899,-1,-100,-100,-100,"0,0,0",0,0,0,0,0,0,51,54,82,70,100,4.0,4,8.0,-9.0,-999.0,10.873059034347534,0.0,77.19999999999999,0.10329198837280273,1,0.0,0.0,0.0,3.7507109201208926e-05,0.0,0.0,-0.027046002164649297,-2.318260079215179,0.7719999999999999,0.0,0.0,0.7762319664676425,0.0,0.005614946319550285,0.0,0.8728159184133493
1773321540.3453472,-1,-100,-100,-100,"0,0,0",0,0,0,0,0,0,51,54,81,70,100,3.94,4,0.0,-15.0,-1042.0,10.978507280349731,0.0,76.6,0.10544824600219727,1,0.0,0.0,0.0,2.813033190090669e-05,0.0,0.0,-0.044858581318633024,-4.0,0.7659999999999999,0.0,0.0,0.7693010246496674,0.0,0.006930941817975045,0.0,0.8797468602313243
1773321540.450803,-1,-100,-100,-100,"0,0,0",0,0,0,0,0,0,51,54,81,70,100,3.97,4,-17.0,12.0,-1011.0,11.08396315574646,0.0,76.6,0.10545587539672852,1,0.0,0.0,0.0,2.1097748925680022e-05,0.0,0.0,-0.0466492203165216,-4.0,0.7659999999999999,0.0,0.0,0.7650289541707682,0.0,0.004272070478899215,0.0,0.8840189307102235
1773321540.5530932,-1,-100,-100,-100,"0,0,0",0,0,0,0,0,0,51,54,80,70,100,3.92,4,-49.0,5.0,-1006.0,11.186253309249878,0.0,76.0,0.10229015350341797,1,0.0,0.0,0.0,1.5823311694260016e-05,0.0,0.0,-0.045566742452494514,-4.0,0.76,0.0,0.0,0.7602207550543911,0.0,0.004808199116377088,0.0,0.8888271298266006
1773321540.656055,-1,-100,-100,-100,"0,0,0",0,0,0,0,0,0,51,54,80,70,100,3.91,4,-6.0,0.0,-1009.0,11.289215087890625,0.0,76.0,0.10296177864074707,1,0.0,0.0,0.0,1.186748377069501e-05,0.0,0.0,-0.04573070496615466,-4.0,0.76,0.0,0.0,0.7573073441995484,0.0,0.0029134108548427573,0.0,0.8917405406814434
1773321540.761513,-1,-100,-100,-100,"0,0,0",0,0,0,0,0,0,51,54,79,70,100,3.97,4,-28.0,10.0,-974.0,11.394673109054565,0.0,75.4,0.10545802116394043,1,0.0,0.0,0.0,8.90061282802126e-06,0.0,0.0,-0.0370792352394495,-3.0831391425251695,0.754,0.0,0.0,0.7536382248549542,0.0,0.0036691193445941295,0.0,0.8954096600260375
1773321540.865376,-1,-100,-100,-100,"0,0,0",0,0,0,0,0,0,51,54,79,70,100,3.85,4,-12.0,0.0,-1017.0,11.498536109924316,0.0,75.4,0.10386300086975098,1,0.0,0.0,0.0,6.675459621015944e-06,0.0,0.0,-0.04524711595818643,-4.0,0.754,0.0,0.0,0.7509632341665012,0.0,0.002674990688453005,0.0,0.8980846507144905
1773321540.9708211,-1,-100,-100,-100,"0,0,0",0,0,0,0,0,0,51,54,79,60,100,3.85,5,-3.0,7.0,-1016.0,11.603981256484985,0.0,71.4,0.10544514656066895,1,0.0,0.0,0.0,5.006594715761958e-06,0.0,0.0,-0.04669826428484204,-4.0,0.7140000000000001,0.0,0.0,0.7332234773069144,0.0,0.01773975685958684,0.0,0.9158244075740773
1773321541.076289,-1,-100,-100,-100,"0,0,0",0,0,0,0,0,0,51,54,79,60,100,3.89,5,-5.0,-12.0,-1015.0,11.709449052810669,0.0,71.4,0.1054677963256836,1,0.0,0.0,0.0,3.754946036821469e-06,0.0,0.0,-0.0468535655073245,-4.0,0.7140000000000001,0.0,0.0,0.7225691610017135,0.0,0.010654316305200862,0.0,0.9264787238792782
1773321541.178089,-1,-100,-100,-100,"0,0,0",0,0,0,0,0,0,51,54,79,60,100,4.0,5,-3.0,-7.0,-1019.0,11.811249017715454,0.0,71.4,0.10179996490478516,1,0.0,0.0,0.0,2.816209527616102e-06,0.0,0.0,-0.04540280792407166,-4.0,0.7140000000000001,0.0,0.0,0.7163682940490785,0.0,0.006200866952634998,0.0,0.9326795908319132
1773321541.278427,-1,-100,-100,-100,"0,0,0",0,0,0,0,0,0,51,54,79,60,100,3.9,5,-17.0,19.0,-1003.0,11.911586999893188,0.0,71.4,0.10033798217773438,1,0.0,0.0,0.0,2.112157145712076e-06,0.0,0.0,-0.044673572722069774,-4.0,0.7140000000000001,0.0,0.0,0.7127315027432854,0.0,0.0036367913057930856,0.0,0.9363163821377063
1773321541.383894,-1,-100,-100,-100,"0,0,0",0,0,0,0,0,0,51,55,80,60,100,3.95,5,-25.0,8.0,-1009.0,12.017054080963135,0.0,72.0,0.10546708106994629,1,0.0,0.0,0.0,1.5841178592840573e-06,0.0,0.0,-0.04665276399411214,-4.0,0.72,0.0,0.0,0.7126867031405888,0.0,4.479960269665462e-05,0.0,0.936361181740403
1773321541.489352,-1,-100,-100,-100,"0,0,0",0,0,0,0,0,0,51,55,80,70,100,3.9,5,-17.0,-5.0,-992.0,12.122512102127075,0.0,76.0,0.10545802116394043,1,0.0,0.0,0.0,1.188088394463043e-06,0.0,0.0,-0.046847415585432366,-4.0,0.76,0.0,0.0,0.7286477604377826,0.0,0.01596105729719377,0.0,0.9523222390375967
1773321541.593156,-1,-100,-100,-100,"0,0,0",0,0,0,0,0,0,51,55,80,70,100,3.94,5,14.0,-14.0,-1006.0,12.226316213607788,0.0,76.0,0.10380411148071289,1,0.0,0.0,0.0,8.910662958472822e-07,0.0,0.0,-0.04620558419116213,-4.0,0.76,0.0,0.0,0.7383108584952232,0.0,0.009663098057440589,0.0,0.9619853370950373
1773321541.6940951,-1,-100,-100,-100,"0,0,0",0,0,0,0,0,0,51,55,80,70,99,3.99,5,-20.0,-13.0,-991.0,12.327255249023438,0.0,76.0,0.10093903541564941,1,0.0,0.0,0.0,6.682997218854616e-07,0.0,0.0,-0.0445324931599297,-3.9541230056548784,0.76,0.0,0.0,0.7442894749546036,0.0,0.00597861645938047,0.0,0.9679639535544178
1773321541.794527,-1,-100,-100,-100,"0,0,0",0,0,0,0,0,0,51,55,80,70,99,3.95,5,-13.0,-2.0,-1001.0,12.427687168121338,0.0,76.0,0.10043191909790039,1,0.0,0.0,0.0,5.012247914140962e-07,0.0,0.0,-0.04046714064417839,-3.5859458580484898,0.76,0.0,0.0,0.7481351694155826,0.0,0.0038456944609789323,0.0,0.9718096480153967
1773321541.894976,-1,-100,-100,-100,"0,0,0",0,0,0,0,0,0,51,55,80,70,99,3.88,5,-18.0,6.0,-1006.0,12.528136014938354,0.0,76.0,0.1004488468170166,1,0.0,0.0,0.0,3.7591859356057215e-07,0.0,0.0,-0.04422591446449028,-4.0,0.76,0.0,0.0,0.750215636384918,0.0,0.0020804669693353928,0.0,0.9738901149847321
1773321541.996452,-1,-100,-100,-100,"0,0,0",-1,0,0,0,0,0,51,55,80,70,99,3.93,6,-35.0,-27.0,-1000.0,12.62961220741272,0.0,76.0,0.10147619247436523,1,0.0,0.0,0.0,2.819389451704291e-07,0.0,0.0,-0.04501281469114447,-4.0,0.76,0.0,0.0,0.7513887444025038,0.0,0.0011731080175858555,0.0,0.975063223002318
1773321542.1018748,-1,-100,-100,-100,"0,0,0",-1,0,0,0,0,0,51,55,81,70,99,3.91,6,14.0,-13.0,-1000.0,12.735034942626953,0.0,76.6,0.1054227352142334,1,0.0,0.0,0.0,2.1145420887782182e-07,0.0,0.0,-0.040680665911954926,-3.4318569593272867,0.7659999999999999,0.0,0.0,0.7546600463990374,0.0,0.003271301996533582,0.0,0.9783345249988515
1773321542.207309,-1,-100,-100,-100,"0,0,0",-1,0,0,0,0,0,51,55,81,70,99,3.99,6,-4.0,-9.0,-992.0,12.840469121932983,0.0,76.6,0.10543417930603027,1,0.0,0.0,0.0,1.5859065665836638e-07,0.0,0.0,-0.018842449220538123,-1.4013032071933242,0.7659999999999999,0.0,0.0,0.7580040449376126,0.0,0.0033439985385752546,0.0,0.9816785235374268
1773321542.309473,-1,-100,-100,-100,"0,0,0",0,0,0,0,0,0,51,55,81,70,99,4.01,6,-10.0,-5.0,-1001.0,12.942633152008057,0.0,76.6,0.10216403007507324,1,0.0,0.0,0.0,1.1894299249377478e-07,0.0,0.0,-0.015523183193930014,-1.3350144185333193,0.7659999999999999,0.0,0.0,0.7602508803897563,0.0,0.0022468354521436584,0.0,0.9839253589895705
1773321542.415128,-1,-100,-100,-100,"0,0,0",0,0,0,0,0,0,52,54,81,70,99,3.98,6,0.0,9.0,-1007.0,13.048288106918335,0.0,76.6,0.10565495491027832,1,0.0,0.0,0.0,8.920724437033109e-08,0.0,0.0,-0.02998038344219091,-2.6906589883511742,0.7659999999999999,0.0,0.0,0.7606499825973873,0.0,0.0003991022076309525,0.0,0.9843244611972014
1773321542.518212,-1,-100,-100,-100,"0,0,0",0,0,0,0,0,0,52,54,81,70,99,3.94,6,-34.0,15.0,-996.0,13.151372194290161,0.0,76.6,0.10308408737182617,1,0.0,0.0,0.0,6.690543327774831e-08,0.0,0.0,-0.01923552219424568,-1.5751746442055037,0.7659999999999999,0.0,0.0,0.7616002638081237,0.0,0.0009502812107364811,0.0,0.9852747424079379
1773321542.623635,-1,-100,-100,-100,"0,0,0",-1,0,0,0,0,0,52,54,81,70,99,3.9,6,-25.0,10.0,-999.0,13.256795167922974,0.0,76.6,0.1054229736328125,1,0.0,0.0,0.0,5.0179074958311225e-08,0.0,0.0,-0.01927257322525509,-1.6456627591842232,0.7659999999999999,0.0,0.0,0.7621410950974967,0.0,0.0005408312893729894,0.0,0.9858155736973109
1773321542.724067,-1,-100,-100,-100,"0,0,0",-1,0,0,0,0,0,52,54,81,70,99,3.93,6,5.0,-11.0,-1001.0,13.357227087020874,0.0,76.6,0.10043191909790039,1,0.0,0.0,0.0,3.7634306218733424e-08,0.0,0.0,-0.019408999521728587,-1.7406593667733812,0.7659999999999999,0.0,0.0,0.7625150872166555,0.0,0.0003739921191587836,0.0,0.9861895658164697
1773321542.838894,-1,-100,-100,-100,"0,0,0",0,0,0,0,0,0,52,54,82,70,99,3.98,6,-27.0,-16.0,-988.0,13.47205400466919,0.0,77.19999999999999,0.11482691764831543,1,0.0,0.0,0.0,2.8225729664050064e-08,0.0,0.0,0.009751385475773372,1.018250795566928,0.7719999999999999,0.0,0.0,0.7669808852521833,0.0,0.004465798035527824,0.0,0.9906553638519975
1773321542.944343,-1,-100,-100,-100,"0,0,0",0,0,0,0,0,0,52,54,82,70,99,4.01,6,-3.0,7.0,-1004.0,13.577503204345703,0.0,77.19999999999999,0.10544919967651367,1,0.0,0.0,0.0,2.116929724803755e-08,0.0,0.0,-0.001218679435592471,-0.20804681707090822,0.7719999999999999,0.0,0.0,0.7689114258886227,0.0,0.0019305406364393818,0.0,0.9925859044884369
1773321543.049737,-1,-100,-100,-100,"0,0,0",0,0,0,0,0,0,52,54,82,70,99,4.03,7,-20.0,-9.0,-1004.0,13.682897090911865,0.0,77.19999999999999,0.10539388656616211,1,0.0,0.0,0.0,1.5876972936028163e-08,0.0,0.0,-0.012654081636783403,-1.1890849071812681,0.7719999999999999,0.0,0.0,0.7693466578263979,0.0,0.0004352319377751712,0.0,0.993021136426212
1773321543.152138,-1,-100,-100,-100,"0,0,0",0,0,0,0,0,0,52,54,82,70,99,4.06,7,-3.0,8.0,-986.0,13.785298109054565,0.0,77.19999999999999,0.1024010181427002,1,0.0,0.0,0.0,1.1907729702021123e-08,0.0,0.0,0.01538587462817702,1.6260846207304667,0.7719999999999999,0.0,0.0,0.7713533122320034,0.0,0.0020066544056055458,0.0,0.9950277908318176
1773321543.2577002,-1,-100,-100,-100,"0,0,0",0,0,0,0,0,0,52,54,82,70,99,4.02,7,5.0,1.0,-1015.0,13.890860319137573,0.0,77.19999999999999,0.10556221008300781,1,0.0,0.0,0.0,8.930797276515842e-09,0.0,0.0,-0.01874813634300372,-1.9217797569401682,0.7719999999999999,0.0,0.0,0.770424530514819,0.0,0.0009287817171844681,0.0,0.995956572549002
1773321543.3631191,-1,-100,-100,-100,"0,0,0",-1,0,0,0,0,0,52,54,82,70,99,4.04,7,-27.0,6.0,-1017.0,13.996279239654541,0.0,77.19999999999999,0.10541892051696777,1,0.0,0.0,0.0,6.698097957386882e-09,0.0,0.0,-0.04404237581279932,-4.0,0.7719999999999999,0.0,0.0,0.7682689784797785,0.0,0.0021555520350404755,0.0,0.9981121245840425
1773321543.466062,-1,-100,-100,-100,"0,0,0",0,0,0,0,0,0,52,55,83,70,99,4.0,7,-12.0,-24.0,-1012.0,14.099222183227539,0.0,77.8,0.10294294357299805,1,0.0,0.0,0.0,5.023573468040162e-09,0.0,0.0,-0.045581410489263036,-4.0,0.778,0.0,0.0,0.7693460163470828,0.0,0.0010770378673042869,0.0,0.9991891624513468
1773321543.570754,-1,-100,-100,-100,"0,0,0",0,0,0,0,0,0,52,55,82,70,99,4.01,7,-13.0,22.0,-980.0,14.203914165496826,0.0,77.19999999999999,0.10469198226928711,1,0.0,0.0,0.0,3.767680101030122e-09,0.0,0.0,-0.021551855613070593,-1.6232110221531002,0.7719999999999999,0.0,0.0,0.7690538259168214,0.0,0.00029219043026140756,0.0,0.9994813528816082
1773321543.671816,-1,-100,-100,-100,"0,0,0",0,0,0,0,0,0,52,55,83,70,98,3.99,7,-26.0,17.0,-979.0,14.304976224899292,0.0,77.8,0.10106205940246582,1,0.0,0.0,0.0,2.8257600757725916e-09,0.0,0.0,0.024917157014035785,2.678783728752933,0.778,0.0,0.0,0.7741432030714687,0.0,0.005089377154647301,0.0,1.0045707300362556
1773321543.775895,-1,-100,-100,-100,"0,0,0",0,0,0,0,0,0,52,55,82,70,98,4.04,7,-16.0,-13.0,-983.0,14.409055233001709,0.0,77.19999999999999,0.10407900810241699,1,0.0,0.0,0.0,2.1193200568294435e-09,0.0,0.0,0.04412332084975843,4.0,0.7719999999999999,0.0,0.0,0.7760413087238177,0.0,0.001898105652349047,0.0,1.0064688356886047
1773321543.881336,-1,-100,-100,-100,"0,0,0",0,0,0,0,0,0,52,55,82,70,98,4.08,7,-4.0,-3.0,-1018.0,14.514496088027954,0.0,77.19999999999999,0.10544085502624512,1,0.0,0.0,0.0,1.5894900426220828e-09,0.0,0.0,0.008984841251345969,0.4336561700577022,0.7719999999999999,0.0,0.0,0.7749932068405807,0.0,0.001048101883237007,0.0,1.0075169375718418
1773321543.986754,-1,-100,-100,-100,"0,0,0",0,0,0,0,0,0,52,55,82,70,98,4.01,7,-16.0,10.0,-981.0,14.619914054870605,0.0,77.19999999999999,0.10541796684265137,1,0.0,0.0,0.0,1.192117531966562e-09,0.0,0.0,0.04226742055142265,3.9242774825215747,0.7719999999999999,0.0,0.0,0.7764693714272769,0.0,0.0014761645866961937,0.0,1.0089931021585379
1773321544.089462,-1,-100,-100,-100,"0,0,0",0,0,0,0,0,0,52,55,82,70,98,3.95,8,-15.0,-3.0,-1003.0,14.722622156143188,0.0,77.19999999999999,0.10270810127258301,1,0.0,0.0,0.0,8.940881489749215e-10,0.0,0.0,0.028021894190722624,2.3167745324927864,0.7719999999999999,0.0,0.0,0.7764084681842003,0.0,6.090324307661543e-05,0.0,1.0090540054016146
1773321544.191895,-1,-100,-100,-100,"0,0,0",0,0,0,0,0,0,52,55,82,70,98,3.95,8,7.0,-2.0,-999.0,14.825055122375488,0.0,77.19999999999999,0.1024329662322998,1,0.0,0.0,0.0,6.705661117311911e-10,0.0,0.0,0.02155533243474486,1.8307721724697785,0.7719999999999999,0.0,0.0,0.7759698668941686,0.0,0.0004386012900317038,0.0,1.0094926066916463
1773321544.293462,-1,-100,-100,-100,"0,0,0",0,0,0,0,0,0,52,55,82,70,98,4.0,8,-6.0,7.0,-996.0,14.926622152328491,0.0,77.19999999999999,0.10156702995300293,1,0.0,0.0,0.0,5.029245837983934e-10,0.0,0.0,0.022895219400507136,2.0419702844512813,0.7719999999999999,0.0,0.0,0.7757771597972802,0.0,0.00019270709688834486,0.0,1.0096853137885347
1773321544.3948002,-1,-100,-100,-100,"0,0,0",0,0,0,0,0,0,52,55,82,70,98,4.0,8,-6.0,7.0,-996.0,15.027960300445557,0.0,77.19999999999999,0.10133814811706543,1,0.0,0.0,0.0,3.7719343784879505e-10,0.0,0.0,0.024694665037483684,2.2109287740364607,0.7719999999999999,0.0,0.0,0.77576780285233,0.0,9.356944950189572e-06,0.0,1.0096946707334848
1773321544.496109,-1,-100,-100,-100,"0,0,0",0,0,0,0,0,0,52,55,82,70,98,4.0,8,-6.0,7.0,-996.0,15.129269123077393,0.0,77.19999999999999,0.10130882263183594,1,0.0,0.0,0.0,2.828950783865963e-10,0.0,0.0,0.026237484712685083,2.3460955657046725,0.7719999999999999,0.0,0.0,0.7758555349224356,0.0,8.773207010559503e-05,0.0,1.0097824028035904
1773321544.5964942,-1,-100,-100,-100,"0,0,0",0,0,0,0,0,0,52,55,82,70,98,4.0,8,-6.0,7.0,-996.0,15.229654312133789,0.0,77.19999999999999,0.10038518905639648,1,0.0,0.0,0.0,2.1217130878994723e-10,0.0,0.0,0.027260572867846507,2.4542289990391737,0.7719999999999999,0.0,0.0,0.775955255610136,0.0,9.972068770036646e-05,0.0,1.0098821234912907
1773321544.700584,-1,-100,-100,-100,"0,0,0",0,0,0,0,0,0,52,55,82,70,98,4.0,8,-6.0,7.0,-996.0,15.333744049072266,0.0,77.19999999999999,0.10408973693847656,1,0.0,0.0,0.0,1.591284815924604e-10,0.0,0.0,0.029172508970080748,2.5407357457067974,0.7719999999999999,0.0,0.0,0.7761950886368001,0.0,0.00023983302666408246,0.0,1.0101219565179549
1773321544.803144,-1,-100,-100,-100,"0,0,0",0,0,0,0,0,0,52,55,82,70,98,4.0,8,-6.0,7.0,-996.0,15.436304092407227,0.0,77.19999999999999,0.10256004333496094,1,0.0,0.0,0.0,1.193463611943453e-10,0.0,0.0,0.029684818677617443,2.609941143040942,0.7719999999999999,0.0,0.0,0.7763437389560601,0.0,0.00014865031926003525,0.0,1.010270606837215
1773321544.907203,-1,-100,-100,-100,"0,0,0",0,0,0,0,0,0,53,55,80,70,98,3.99,8,-11.0,-8.0,-992.0,15.540363073348999,0.0,76.0,0.10405898094177246,1,0.0,0.0,0.0,8.9509770895759e-11,0.0,0.0,0.039028097439728494,3.4653054609083256,0.76,0.0,0.0,0.7722429778022407,0.0,0.00410076115381941,0.0,1.0143713679910342
1773321545.01078,-1,-100,-100,-100,"0,0,0",0,0,0,0,0,0,53,55,80,70,98,4.06,9,13.0,-31.0,-1007.0,15.643940210342407,0.0,76.0,0.1035771369934082,1,0.0,0.0,0.0,6.713232817181925e-11,0.0,0.0,0.015810005521701823,1.1495969152022099,0.76,0.0,0.0,0.7683283197460171,0.0,0.003914658056223597,0.0,1.018286026047258
1773321545.112936,-1,-100,-100,-100,"0,0,0",0,0,0,0,0,0,53,55,80,60,98,4.04,9,-3.0,-21.0,-1023.0,15.746096134185791,0.0,72.0,0.10215592384338379,1,0.0,0.0,0.0,5.0349246128864435e-11,0.0,0.0,-0.03829014920749104,-3.9029699213627964,0.72,0.0,0.0,0.7466500525077748,0.0,0.021678267238242288,0.0,1.0399642932855002
1773321545.2180831,-1,-100,-100,-100,"0,0,0",0,0,0,0,0,0,53,55,79,60,98,4.01,9,-25.0,2.0,-1017.0,15.851243257522583,0.0,71.4,0.10514712333679199,1,0.0,0.0,0.0,3.776193459664833e-11,0.0,0.0,-0.04588786422148016,-4.0,0.7140000000000001,0.0,0.0,0.7306950453532901,0.0,0.015955007154484724,0.0,1.055919300439985
1773321545.3221629,-1,-100,-100,-100,"0,0,0",0,0,0,0,0,0,53,55,80,60,98,4.02,9,-37.0,13.0,-1002.0,15.955322980880737,0.0,72.0,0.1040797233581543,1,0.0,0.0,0.0,2.8321450947486245e-11,0.0,0.0,-0.04622067573992043,-4.0,0.72,0.0,0.0,0.7235306461253113,0.0,0.007164399227978846,0.0,1.0630836996679638
1773321545.425083,-1,-100,-100,-100,"0,0,0",0,0,0,0,0,0,52,55,80,60,98,4.01,9,-13.0,-15.0,-1016.0,16.05824303627014,0.0,72.0,0.1029200553894043,1,0.0,0.0,0.0,2.1241088210614686e-11,0.0,0.0,-0.045790089710636785,-4.0,0.72,0.0,0.0,0.719290756533604,0.0,0.004239889591707291,0.0,1.067323589259671
1773321545.526234,-1,-100,-100,-100,"0,0,0",-1,0,0,0,0,0,52,55,80,60,98,4.09,9,-10.0,-1.0,-1009.0,16.159394025802612,0.0,72.0,0.1011509895324707,1,0.0,0.0,0.0,1.5930816157961014e-11,0.0,0.0,-0.045039404769714235,-4.0,0.72,0.0,0.0,0.7168409857039163,0.0,0.0024497708296876697,0.0,1.0697733600893589
1773321545.631579,-1,-100,-100,-100,"0,0,0",-1,0,0,0,0,0,52,55,81,60,97,4.01,9,-19.0,14.0,-995.0,16.26473903656006,0.0,72.6,0.10534501075744629,1,0.0,0.0,0.0,1.1948112118470758e-11,0.0,0.0,-0.04664194476919664,-4.0,0.726,0.0,0.0,0.7175564937182741,0.0,0.0007155080143578241,0.0,1.0704888681037166
1773321545.734991,-1,-100,-100,-100,"0,0,0",-1,0,0,0,0,0,52,55,81,70,97,3.97,9,-46.0,0.0,-981.0,16.36815118789673,0.0,76.6,0.10341215133666992,1,0.0,0.0,0.0,8.961084088853069e-12,0.0,0.0,-0.022909770768775744,-1.764355161756622,0.7659999999999999,0.0,0.0,0.735512407021867,0.0,0.01795591330359292,0.0,1.0884447814073095
1773321545.835503,-1,-100,-100,-100,"0,0,0",0,0,0,0,0,0,52,55,82,70,97,4.01,9,28.0,-13.0,-1030.0,16.468663215637207,0.0,77.19999999999999,0.10051202774047852,1,0.0,0.0,0.0,6.7208130666398015e-12,0.0,0.0,-0.04249578816702025,-4.0,0.7719999999999999,0.0,0.0,0.7475446415096619,0.0,0.01203223448779489,0.0,1.1004770158951045
1773321545.9367502,-1,-100,-100,-100,"0,0,0",0,0,0,0,0,0,52,55,82,70,97,4.01,9,28.0,-13.0,-1030.0,16.569910287857056,0.0,77.19999999999999,0.10124707221984863,1,0.0,0.0,0.0,5.040609799979851e-12,0.0,0.0,-0.04474840770010493,-4.0,0.7719999999999999,0.0,0.0,0.7546083977461157,0.0,0.007063756236453722,0.0,1.1075407721315582
1773321546.03858,-1,-100,-100,-100,"0,0,0",0,0,0,0,0,0,52,55,83,70,97,4.02,10,-38.0,10.0,-967.0,16.67174005508423,0.0,77.8,0.10182976722717285,1,0.0,0.0,0.0,3.780457349984888e-12,0.0,0.0,-0.037625165797411576,-3.25546507013496,0.778,0.0,0.0,0.7616662215226488,0.0,0.00705782377653319,0.0,1.1145985959080913
1773321546.142288,-1,-100,-100,-100,"0,0,0",0,0,0,0,0,0,52,55,83,70,97,3.99,10,-18.0,-1.0,-987.0,16.775448083877563,0.0,77.8,0.10370802879333496,1,0.0,0.0,0.0,2.8353430124886663e-12,0.0,0.0,-0.006116891161350351,-0.22701950963244144,0.778,0.0,0.0,0.7678191104787772,0.0,0.006152888956128311,0.0,1.1207514848642197
1773321546.2453692,-1,-100,-100,-100,"0,0,0",0,0,0,0,0,0,52,55,83,70,97,3.99,10,-18.0,-1.0,-987.0,16.87852931022644,0.0,77.8,0.10308122634887695,1,0.0,0.0,0.0,2.1265072593664997e-12,0.0,0.0,0.022022236524568015,2.195736938769528,0.778,0.0,0.0,0.7732535137760048,0.0,0.0054344032972276635,0.0,1.1261858881614475
1773321546.350332,-1,-100,-100,-100,"0,0,0",0,0,0,0,0,0,52,55,84,70,97,4.06,10,4.0,-7.0,-1006.0,16.983492136001587,0.0,78.4,0.10496282577514648,1,0.0,0.0,0.0,1.5948804445248746e-12,0.0,0.0,0.005707374273686764,0.3339420974911036,0.784,0.0,0.0,0.7779115455445165,0.0,0.00465803176851165,0.0,1.1308439199299591
1773321546.452579,-1,-100,-100,-100,"0,0,0",0,0,0,0,0,0,52,55,84,70,97,4.06,10,4.0,-7.0,-1006.0,17.085739135742188,0.0,78.4,0.10224699974060059,1,0.0,0.0,0.0,1.1961603333936561e-12,0.0,0.0,-0.01124383974826012,-1.1554937755316814,0.784,0.0,0.0,0.7796571379988158,0.0,0.001745592454299283,0.0,1.1325895123842584
1773321546.552923,-1,-100,-100,-100,"0,0,0",0,0,0,0,0,0,53,55,84,70,97,4.02,10,-27.0,-12.0,-1004.0,17.1860830783844,0.0,78.4,0.10034394264221191,1,0.0,0.0,0.0,8.971202500452421e-13,0.0,0.0,-0.020661775806815018,-1.9470424739497503,0.784,0.0,0.0,0.7801503123714224,0.0,0.0004931743726066529,0.0,1.133082686756865
1773321546.6558511,-1,-100,-100,-100,"0,0,0",0,0,0,0,0,0,53,55,85,70,97,4.02,10,-3.0,-18.0,-1030.0,17.289011240005493,0.0,79.0,0.10292816162109375,1,0.0,0.0,0.0,6.728401875339316e-13,0.0,0.0,-0.043237442228513445,-4.0,0.79,0.0,0.0,0.781419977157786,0.0,0.001269664786363589,0.0,1.1343523515432286
1773321546.760803,-1,-100,-100,-100,"0,0,0",0,0,0,0,0,0,53,55,86,70,97,4.01,10,-39.0,11.0,-995.0,17.393963098526,0.0,79.6,0.10495185852050781,1,0.0,0.0,0.0,5.046301406504488e-13,0.0,0.0,-0.046304487630600306,-4.0,0.7959999999999999,0.0,0.0,0.7843361410738687,0.0,0.002916163916082737,0.0,1.1372685154593114
1773321546.8613062,-1,-100,-100,-100,"0,0,0",0,0,0,0,0,0,53,55,86,70,97,4.02,10,-9.0,-29.0,-981.0,17.494466304779053,0.0,79.6,0.10050320625305176,1,0.0,0.0,0.0,3.784726054878365e-13,0.0,0.0,-0.012471161506402626,-0.7801455332620435,0.7959999999999999,0.0,0.0,0.7882496496140654,0.0,0.003913508540196675,0.0,1.141182023999508
1773321546.966772,-1,-100,-100,-100,"0,0,0",0,0,0,0,0,0,53,55,86,70,97,4.06,10,-33.0,-5.0,-991.0,17.599932193756104,0.0,79.6,0.10546588897705078,1,0.0,0.0,0.0,2.838544541158774e-13,0.0,0.0,0.00880627332828309,0.9532361198657782,0.7959999999999999,0.0,0.0,0.7919070466355247,0.0,0.0036573970214592855,0.0,1.1448394210209674
1773321547.067294,-1,-100,-100,-100,"0,0,0",0,0,0,0,0,0,53,55,87,70,97,4.02,11,-2.0,-27.0,-985.0,17.700453996658325,0.0,80.19999999999999,0.10052180290222168,1,0.0,0.0,0.0,2.1289084058690804e-13,0.0,0.0,0.0364647569285332,3.5399414423681037,0.8019999999999999,0.0,0.0,0.7981435298466232,0.0,0.006236483211098487,0.0,1.1510759042320657
1773321547.1726668,-1,-100,-100,-100,"0,0,0",0,1,0,0,0,0,53,55,87,70,97,4.1,11,-17.0,-17.0,-986.0,17.805826902389526,0.0,80.19999999999999,0.10537290573120117,1,0.0,0.0,0.0,1.5966813044018101e-13,0.0,0.0,0.04579563798547749,4.0,0.8019999999999999,0.0,0.0,0.8025814895745802,0.0,0.004437959727957019,0.0,1.1555138639600226
1773321547.277685,-1,-100,-100,-100,"0,0,0",0,4,0,0,0,0,53,55,87,70,97,4.08,11,-16.0,1.0,-975.0,17.910845041275024,0.0,80.19999999999999,0.10501813888549805,1,0.0,0.0,0.0,1.1975109783013577e-13,0.0,0.0,0.04658681935285475,4.0,0.8019999999999999,0.0,0.0,0.8052843703837671,0.0,0.0027028808091869028,0.0,1.1582167447692095
1773321547.378121,-1,-100,-100,-100,"0,0,0",0,4,0,0,0,0,53,55,87,70,97,4.08,11,-16.0,1.0,-975.0,18.01128101348877,0.0,80.19999999999999,0.10043597221374512,1,0.0,0.0,0.0,8.981332337260182e-14,0.0,0.0,0.04483307082086436,4.0,0.8019999999999999,0.0,0.0,0.806672334063393,0.0,0.0013879636796259032,0.0,1.1596047084488355
1773321547.483642,-1,-100,-100,-100,"0,0,0",0,4,0,0,0,0,53,55,87,70,97,4.08,11,-16.0,1.0,-975.0,18.116802215576172,0.0,80.19999999999999,0.10552120208740234,1,0.0,0.0,0.0,6.735999252945136e-14,0.0,0.0,0.046691787917108,4.0,0.8019999999999999,0.0,0.0,0.8077595845912098,0.0,0.0010872505278167743,0.0,1.1606919589766522
1773321547.5840409,-1,-100,-100,-100,"0,0,0",0,8,0,0,-4,0,52,55,88,70,97,4.05,11,6.0,-47.0,-1032.0,18.217200994491577,4.0,80.8,0.10039877891540527,1,0.0,0.0,-0.01,5.0519994397088526e-14,0.0,-0.01,0.04482869035791838,4.0,0.8079999999999999,0.0,-0.0010039877891540527,0.8105561982181129,0.0010039877891540527,0.0029713699296705703,0.0010039877891540527,1.1636633289063227
1773321547.688351,-1,-100,-100,-100,"0,0,0",0,8,0,0,-4,0,52,55,88,70,97,4.05,11,6.0,-47.0,-1032.0,18.321511030197144,4.0,80.8,0.1043100357055664,1,0.0,0.0,-0.0175,3.788999579781639e-14,0.0,-0.0175,-0.03724114524640063,-4.0,0.8079999999999999,0.0,-0.002829413414001465,0.8072029438166468,0.0018254256248474122,0.0038179174680447237,0.002829413414001465,1.1674812463743676
1773321547.7927449,-1,-100,-100,-100,"0,0,0",0,7,0,0,-6,0,52,55,88,70,96,4.05,11,-14.0,-26.0,-953.0,18.425904989242554,6.0,80.8,0.10439395904541016,1,0.0,0.0,-0.028125,2.8417496848362295e-14,0.0,-0.028125,0.03803346909354958,4.0,0.8079999999999999,0.0,-0.005765493512153625,0.8099040449389322,0.0029360800981521606,0.003989550553079454,0.005765493512153625,1.171470796927447
1773321547.8936052,-1,-100,-100,-100,"0,0,0",0,5,0,0,-7,0,52,55,88,70,96,3.99,11,12.0,-45.0,-1022.0,18.5267653465271,7.0,80.8,0.1008603572845459,1,0.0,0.0,-0.03859375,2.131312263627172e-14,0.0,-0.03859375,-0.0006536067785298604,-0.4418935058231156,0.8079999999999999,0.0,-0.009658072926104069,0.8091028731554357,0.0038925794139504435,0.003974172960577044,0.009658072926104069,1.175444969888024
1773321547.9989178,-1,-100,-100,-100,"0,0,0",0,5,0,0,-7,0,52,55,88,70,96,3.99,11,12.0,-45.0,-1022.0,18.632077932357788,7.0,80.8,0.10531258583068848,1,0.0,0.0,-0.0464453125,1.598484197720379e-14,0.0,-0.0464453125,-0.042190395010114,-4.0,0.8079999999999999,0.0,-0.014549348885193467,0.8059958161358214,0.004891275959089399,0.005794685826781347,0.014549348885193467,1.1812396557148055
1773321548.099272,-1,-100,-100,-100,"0,0,0",0,4,0,0,-8,0,52,55,88,70,96,4.01,12,0.0,-41.0,-982.0,18.7324321269989,8.0,80.8,0.10035419464111328,1,0.0,0.0,-0.054833984375,1.198863148290284e-14,0.0,-0.054833984375,-0.01667210632922893,-1.2409114409978563,0.8079999999999999,0.0,-0.02005216922610998,0.8057936201993083,0.005502820340916514,0.005506533837283389,0.02005216922610998,1.186746189552089
1773321548.204732,-1,-100,-100,-100,"0,0,0",0,-1,0,0,-7,0,52,55,89,70,96,4.07,12,-18.0,-50.0,-994.0,18.837892055511475,7.0,81.4,0.10545992851257324,1,0.0,0.0,-0.05862548828125,8.991473612177131e-15,0.0,-0.05862548828125,0.01608742834978,1.6835436201322707,0.8140000000000001,0.0,-0.026234809029265303,0.8100941195458164,0.006182639803155325,0.007531223643265232,0.026234809029265303,1.1942774131953542
1773321548.30796,-1,-100,-100,-100,"0,0,0",0,-1,0,0,-7,0,52,55,89,70,96,4.07,12,-18.0,-50.0,-994.0,18.941120147705078,7.0,81.4,0.10322809219360352,1,0.0,0.0,-0.0614691162109375,6.743605209132848e-15,0.0,-0.0614691162109375,0.02703985336404645,2.463584281046919,0.8140000000000001,0.0,-0.032580148624547285,0.813331235213069,0.0063453395952819845,0.007123359630302655,0.032580148624547285,1.2014007728256568
1773321548.413402,-1,-100,-100,-100,"0,0,0",0,-4,0,0,-6,0,52,55,99,70,96,4.06,12,22.0,-42.0,-1006.0,19.04656219482422,6.0,87.4,0.10544204711914062,1,0.0,0.0,-0.06110183715820312,5.057703906849636e-15,0.0,-0.06110183715820312,0.025847060735313145,2.1948621096813703,0.8740000000000001,0.0,-0.039022851417248594,0.8392339613254081,0.0064427027927013115,0.02669193959467784,0.039022851417248594,1.2280927124203347
1773321548.518383,-1,-100,-100,-100,"0,0,0",0,-3,0,0,-4,0,53,55,135,70,96,4.09,12,24.0,-7.0,-979.0,19.151543140411377,4.0,109.0,0.1049809455871582,1,0.0,0.0,-0.05582637786865234,3.7932779301372274e-15,0.0,-0.05582637786865234,0.04457708430839801,4.0,1.09,0.0,-0.04488355735460572,0.9423482234725733,0.005860705937357124,0.10328068034360777,0.04488355735460572,1.3313733927639424
1773321548.619589,-1,-100,-100,-100,"0,0,0",0,-3,0,0,-4,0,53,55,135,70,96,4.09,12,24.0,-7.0,-979.0,19.25274920463562,4.0,109.0,0.10120606422424316,1,0.0,0.0,-0.05186978340148926,2.8449584476029206e-15,0.0,-0.05186978340148926,0.04494013412053963,4.0,1.09,0.0,-0.05013309398483442,1.0041378625435737,0.005249536630228704,0.06201223372332766,0.05013309398483442,1.3933856264872702
1773321548.72082,-1,-100,-100,-100,"0,0,0",0,-1,0,0,-2,0,53,55,136,70,96,3.96,12,-1.0,-25.0,-1004.0,19.35398006439209,2.0,109.6,0.10123085975646973,1,0.0,0.0,-0.04390233755111694,2.1337188357021904e-15,0.0,-0.04390233755111694,0.04498635731464378,4.0,1.0959999999999999,0.0,-0.05457736536045273,1.043615122103108,0.004444271375618314,0.039726635528206794,0.05457736536045273,1.433112262015477
1773321548.8232949,-1,-100,-100,-100,"0,0,0",0,0,0,0,-1,0,53,55,131,70,96,4.0,12,-7.0,-17.0,-967.0,19.45645499229431,1.0,106.6,0.10247492790222168,1,0.0,0.0,-0.03542675316333771,1.6002891267766427e-15,0.0,-0.03542675316333771,0.0454886068923545,4.0,1.0659999999999998,0.0,-0.05820771933667557,1.0553659382888647,0.0036303539762228354,0.012298827221492227,0.05820771933667557,1.4454110892369694
1773321548.927912,-1,-100,-100,-100,"0,0,0",0,0,0,0,-1,0,53,55,131,70,96,4.0,12,-7.0,-17.0,-967.0,19.56107211112976,1.0,106.6,0.10461711883544922,1,0.0,0.0,-0.02907006487250328,1.200216845082482e-15,0.0,-0.02907006487250328,0.046395708223416224,4.0,1.0659999999999998,0.0,-0.061248945767996464,1.0625318341657173,0.0030412264313208937,0.007784543783964315,0.061248945767996464,1.4531956330209337
1773321549.03335,-1,-100,-100,-100,"0,0,0",0,2,0,0,-1,0,53,55,145,70,96,4.02,13,-7.0,-20.0,-992.0,19.666510105133057,1.0,115.0,0.1054379940032959,1,0.0,0.0,-0.024302548654377462,9.001626338118616e-16,0.0,-0.024302548654377462,0.046814768423660794,4.0,1.15,0.0,-0.06381135774728153,1.1004807336628222,0.0025624119792850577,0.038035311595844085,0.06381135774728153,1.4912309446167777
1773321549.138876,-1,-100,-100,-100,"0,0,0",0,2,0,0,-2,0,53,55,153,70,96,4.06,13,2.0,-22.0,-997.0,19.77203607559204,2.0,119.8,0.10552597045898438,1,0.0,0.0,-0.023226911490783094,6.751219753588962e-16,0.0,-0.023226911490783094,0.04689186502596044,4.0,1.198,0.0,-0.06626240012311135,1.142457425935791,0.0024510423758298213,0.04204819024533193,0.06626240012311135,1.5332791348621098
1773321549.240768,-1,-100,-100,-100,"0,0,0",0,2,0,0,-2,0,53,55,153,70,96,4.06,13,2.0,-22.0,-997.0,19.87392807006836,2.0,119.8,0.10189199447631836,1,0.0,0.0,-0.02242018361808732,5.0634148151917215e-16,0.0,-0.02242018361808732,0.045445984293123846,4.0,1.198,0.0,-0.06854683734848355,1.167452804749814,0.0022844372253721964,0.02509955408952882,0.06854683734848355,1.5583786889516387
1773321549.346224,-1,-100,-100,-100,"0,0,0",0,1,0,0,-2,0,53,55,160,70,96,3.95,13,-13.0,-25.0,-1006.0,19.979384183883667,2.0,124.0,0.10545611381530762,1,0.0,0.0,-0.02181513771356549,3.7975611113937906e-16,0.0,-0.02181513771356549,0.046727043955435775,4.0,1.24,0.0,-0.07084737699410192,1.1994282743292586,0.002300539645618372,0.03205812124075652,0.07084737699410192,1.5904368101923951
1773321549.4505758,-1,-100,-100,-100,"0,0,0",0,1,0,0,-2,0,53,55,160,70,96,3.95,13,-13.0,-25.0,-1006.0,20.083735942840576,2.0,124.0,0.10435175895690918,1,0.0,0.0,-0.02136135328517412,2.848170833545343e-16,0.0,-0.02136135328517412,0.03564402148442532,2.9679726914493814,1.24,0.0,-0.07307647178310979,1.2178886744004735,0.00222909478900787,0.0185944947327884,0.07307647178310979,1.6090313049251834
1773321549.552831,-1,-100,-100,-100,"0,0,0",0,1,0,0,-2,0,52,55,160,70,96,3.98,13,-4.0,9.0,-991.0,20.185991048812866,2.0,124.0,0.10225510597229004,1,0.0,0.0,-0.021021014963880588,2.136128125159007e-16,0.0,-0.021021014963880588,0.04446644453735874,4.0,1.24,0.0,-0.07522597789588649,1.2294613572393112,0.002149506112776704,0.011770614453680444,0.07522597789588649,1.6208019193788639
1773321549.655752,-1,-100,-100,-100,"0,0,0",0,1,0,0,-2,0,52,55,160,70,96,3.98,13,-4.0,9.0,-991.0,20.288912057876587,2.0,124.0,0.1029210090637207,1,0.0,0.0,-0.02076576122291044,1.6020960938692552e-16,0.0,-0.02076576122291044,0.045615048079224306,4.0,1.24,0.0,-0.07736321099492471,1.2364936624096692,0.002137233099038225,0.007349903491112567,0.07736321099492471,1.6281518228699765
1773321549.7565498,-1,-100,-100,-100,"0,0,0",0,-4,0,0,-1,0,52,55,160,60,95,3.9,13,2.0,-8.0,-992.0,20.389709949493408,1.0,120.0,0.10079789161682129,1,0.0,0.0,-0.01807432091718283,1.2015720704019415e-16,0.0,-0.01807432091718283,0.044880661454651055,4.0,1.2,0.0,-0.07918506443578255,1.2246105230751998,0.001821853440857841,0.012021986125527637,0.07918506443578255,1.6401738089955042
1773321549.857174,-1,-100,-100,-100,"0,0,0",0,-1,0,0,0,0,52,55,158,60,95,4.01,13,-1.0,3.0,-1013.0,20.490334033966064,0.0,118.8,0.10062408447265625,1,0.0,0.0,-0.013555740687887124,9.01179052801456e-17,0.0,-0.013555740687887124,0.01833269223785038,1.3758759808788474,1.188,0.0,-0.08054909843184993,1.2110731400685315,0.0013640339960673774,0.013605929862073337,0.08054909843184993,1.6537797388575777
1773321549.957907,-1,-100,-100,-100,"0,0,0",0,-1,0,0,0,0,52,55,158,60,95,4.01,13,-1.0,3.0,-1013.0,20.59106707572937,0.0,118.8,0.10073304176330566,1,0.0,0.0,-0.010166805515915343,6.758842896010921e-17,0.0,-0.010166805515915343,-0.015965922607832823,-1.7669665801853796,1.188,0.0,-0.08157323167648403,1.2008789064718122,0.0010241332446341066,0.010245547692888168,0.08157323167648403,1.6640252865504659
1773321550.059981,-1,-100,-100,-100,"0,0,0",0,0,0,0,0,0,52,55,156,60,95,3.94,14,3.0,-24.0,-1010.0,20.693141222000122,0.0,117.6,0.10207414627075195,1,0.0,0.0,-0.007625104136936507,5.0691321720081905e-17,0.0,-0.007625104136936507,-0.0381358623811704,-3.579679228809482,1.176,0.0,-0.0823515576714874,1.1885917325261732,0.0007783259950033728,0.012311800636985901,0.0823515576714874,1.676337087187452
1773321550.1652532,-1,-100,-100,-100,"0,0,0",0,0,0,0,0,0,52,55,155,60,95,3.95,14,-5.0,1.0,-1007.0,20.798413276672363,0.0,117.0,0.10527205467224121,1,0.0,0.0,-0.00571882810270238,3.8018491290061426e-17,0.0,-0.00571882810270238,-0.04592240810701349,-4.0,1.17,0.0,-0.08295359045617623,1.1782544317615504,0.0006020327846888344,0.0103548167811947,0.08295359045617623,1.6866919039686465
1773321550.2657988,-1,-100,-100,-100,"0,0,0",0,0,0,0,0,0,52,55,155,60,95,3.95,14,-5.0,1.0,-1007.0,20.898958921432495,0.0,117.0,0.10054564476013184,1,0.0,0.0,-0.004289121077026785,2.851386846754607e-17,0.0,-0.004289121077026785,-0.04481049871475406,-4.0,1.17,0.0,-0.08338484290032015,1.1722493587657512,0.0004312524441439292,0.006020538211443985,0.08338484290032015,1.6927124421800905
1773321550.3706791,-1,-100,-100,-100,"0,0,0",-1,0,0,0,0,0,52,55,155,60,95,3.91,14,-6.0,-6.0,-1022.0,21.003839254379272,0.0,117.0,0.10488033294677734,1,0.0,0.0,-0.003216840807770089,2.1385401350659554e-17,0.0,-0.003216840807770089,-0.04643318305018632,-4.0,1.17,0.0,-0.08372222623527587,1.1684276586406015,0.0003373833349557071,0.0038365634832848946,0.08372222623527587,1.6965490056633754
