t_s,dt_s,flight_mask,roll,pitch,yaw,yaw_unwrapped_deg,vgx,vgy,vgz,vxy,agx,agy,agz,vx_world_m_s,vy_world_m_s,vz_odom_m_s,vz_fused_m_s,az_world_dyn_m_s2,h,tof,h_fused,z_meas_m,x_m,y_m,z_m,step_dist_2d_m,step_dist_3d_m,dist_2d_m,dist_3d_m
0.0,0.1,0,0,0,0,0.0,0,0,0,0.0,5.0,-10.0,-999.0,0.0,0.0,0.0,0.0,-0.11323726762225306,0,10,6.0,0.06,0.0,0.0,0.0,0.0,0.0,0.0,0.0
0.10349202156066895,0.10349202156066895,0,0,0,0,0.0,0,0,0,0.0,6.0,-10.0,-998.0,0.0,0.0,0.0,0.0,0.08676273237767873,0,10,6.0,0.06,0.0,0.0,0.0,0.0,0.0,0.0,0.0
0.2041029930114746,0.10061097145080566,0,0,0,0,0.0,0,0,0,0.0,5.0,-11.0,-996.0,0.0,0.0,0.0,0.0,0.6467627323776242,0,10,6.0,0.06,0.0,0.0,0.0,0.0,0.0,0.0,0.0
0.33098721504211426,0.12688422203063965,0,0,0,0,0.0,0,0,0,0.0,5.0,-10.0,-1000.0,0.0,0.0,0.0,0.0,0.2947627323776487,0,10,6.0,0.06,0.0,0.0,0.0,0.0,0.0,0.0,0.0
0.43129420280456543,0.10030698776245117,0,0,0,0,0.0,0,0,0,0.0,7.0,-10.0,-998.0,0.0,0.0,0.0,0.0,0.41316273237760015,0,10,6.0,0.06,0.0,0.0,0.0,0.0,0.0,0.0,0.0
0.5363962650299072,0.1051020622253418,0,0,0,0,0.0,0,0,0,0.0,6.0,-10.0,-1001.0,0.0,0.0,0.0,0.0,-0.09211726762248418,0,10,6.0,0.06,0.0,0.0,0.0,0.0,0.0,0.0,0.0
0.6383850574493408,0.1019887924194336,0,0,0,0,0.0,0,0,0,0.0,5.0,-9.0,-1000.0,0.0,0.0,0.0,0.0,-0.29634126762243795,0,10,6.0,0.06,0.0,0.0,0.0,0.0,0.0,0.0,0.0
0.7896370887756348,0.15125203132629395,0,0,0,0,0.0,0,0,0,0.0,6.0,-10.0,-999.0,0.0,0.0,0.0,0.0,-0.259720467622401,0,10,6.0,0.06,0.0,0.0,0.0,0.0,0.0,0.0,0.0
0.8903441429138184,0.1007070541381836,0,0,0,0,0.0,0,0,0,0.0,5.0,-10.0,-999.0,0.0,0.0,0.0,0.0,-0.23042382762241687,0,10,6.0,0.06,0.0,0.0,0.0,0.0,0.0,0.0,0.0
0.9912981986999512,0.10095405578613281,0,0,0,0,0.0,0,0,0,0.0,5.0,-9.0,-999.0,0.0,0.0,0.0,0.0,-0.20698651562247505,0,10,6.0,0.06,0.0,0.0,0.0,0.0,0.0,0.0,0.0
1.0929160118103027,0.10161781311035156,0,0,0,0,0.0,0,0,0,0.0,7.0,-11.0,-1000.0,0.0,0.0,0.0,0.0,-0.3882366660225216,0,10,6.0,0.06,0.0,0.0,0.0,0.0,0.0,0.0,0.0
1.1968932151794434,0.10397720336914062,0,0,0,0,0.0,0,0,0,0.0,6.0,-11.0,-999.0,0.0,0.0,0.0,0.0,-0.3332367863424679,0,10,6.0,0.06,0.0,0.0,0.0,0.0,0.0,0.0,0.0
1.2975819110870361,0.10068869590759277,0,0,0,0,0.0,0,0,0,0.0,5.0,-9.0,-998.0,0.0,0.0,0.0,0.0,-0.0892368825984704,0,10,6.0,0.06,0.0,0.0,0.0,0.0,0.0,0.0,0.0
1.3978090286254883,0.10022711753845215,0,0,0,0,0.0,0,0,0,0.0,5.0,-10.0,-998.0,0.0,0.0,0.0,0.0,0.10596304039665938,0,10,6.0,0.06,0.0,0.0,0.0,0.0,0.0,0.0,0.0
1.4994971752166748,0.10168814659118652,0,0,0,0,0.0,0,0,0,0.0,6.0,-11.0,-997.0,0.0,0.0,0.0,0.0,0.4621229787928769,0,10,6.0,0.06,0.0,0.0,0.0,0.0,0.0,0.0,0.0
1.6002671718597412,0.1007699966430664,0,0,0,0,0.0,0,0,0,0.0,5.0,-11.0,-1000.0,0.0,0.0,0.0,0.0,0.14705092950975995,0,10,6.0,0.06,0.0,0.0,0.0,0.0,0.0,0.0,0.0
1.705808162689209,0.10554099082946777,0,0,0,0,0.0,0,0,0,0.0,6.0,-10.0,-999.0,0.0,0.0,0.0,0.0,0.0949932900832664,0,10,6.0,0.06,0.0,0.0,0.0,0.0,0.0,0.0,0.0
1.8072900772094727,0.10148191452026367,0,0,0,0,0.0,0,0,0,0.0,6.0,-10.0,-1002.0,0.0,0.0,0.0,0.0,-0.546652821457883,0,10,6.0,0.06,0.0,0.0,0.0,0.0,0.0,0.0,0.0
1.909301996231079,0.10201191902160645,0,0,0,0,0.0,0,0,0,0.0,6.0,-10.0,-998.0,0.0,0.0,0.0,0.0,-0.2599697106908252,0,10,6.0,0.06,0.0,0.0,0.0,0.0,0.0,0.0,0.0
2.012166976928711,0.10286498069763184,0,0,0,0,0.0,0,0,0,0.0,6.0,-10.0,-998.0,0.0,0.0,0.0,0.0,-0.030623222077224455,0,10,6.0,0.06,0.0,0.0,0.0,0.0,0.0,0.0,0.0
2.1164121627807617,0.10424518585205078,0,0,0,0,0.0,0,0,0,0.0,6.0,-10.0,-998.0,0.0,0.0,0.0,0.0,0.1528539688137016,0,10,6.0,0.06,0.0,0.0,0.0,0.0,0.0,0.0,0.0
2.221654176712036,0.10524201393127441,0,0,0,0,0.0,0,0,0,0.0,6.0,-10.0,-998.0,0.0,0.0,0.0,0.0,0.29963572152644247,0,10,6.0,0.06,0.0,0.0,0.0,0.0,0.0,0.0,0.0
2.3239052295684814,0.10225105285644531,0,0,0,0,0.0,0,0,0,0.0,6.0,-11.0,-999.0,0.0,0.0,0.0,0.0,0.21706112369656694,0,10,6.0,0.06,0.0,0.0,0.0,0.0,0.0,0.0,0.0
2.4270102977752686,0.10310506820678711,0,0,0,0,0.0,0,0,0,0.0,5.0,-9.0,-1000.0,0.0,0.0,0.0,0.0,-0.0489985545672198,0,10,6.0,0.06,0.0,0.0,0.0,0.0,0.0,0.0,0.0
2.5283632278442383,0.10135293006896973,0,0,0,0,0.0,0,0,0,0.0,4.0,-9.0,-1001.0,0.0,0.0,0.0,0.0,-0.46184629717834014,0,10,6.0,0.06,0.0,0.0,0.0,0.0,0.0,0.0,0.0
2.6285409927368164,0.10017776489257812,0,0,0,0,0.0,0,0,0,0.0,6.0,-11.0,-997.0,0.0,0.0,0.0,0.0,0.007875508732809067,0,10,6.0,0.06,0.0,0.0,0.0,0.0,0.0,0.0,0.0
2.7333621978759766,0.10482120513916016,0,0,0,0,0.0,0,0,0,0.0,6.0,-10.0,-999.0,0.0,0.0,0.0,0.0,-0.016347046538157883,0,10,6.0,0.06,0.0,0.0,0.0,0.0,0.0,0.0,0.0
2.837222099304199,0.10385990142822266,0,0,0,0,0.0,0,0,0,0.0,6.0,-10.0,-998.0,0.0,0.0,0.0,0.0,0.1642749092449094,0,10,6.0,0.06,0.0,0.0,0.0,0.0,0.0,0.0,0.0
2.9408981800079346,0.10367608070373535,0,0,0,0,0.0,0,0,0,0.0,7.0,-12.0,-999.0,0.0,0.0,0.0,0.0,0.10877247387134048,0,10,6.0,0.06,0.0,0.0,0.0,0.0,0.0,0.0,0.0
3.041400909423828,0.10050272941589355,0,0,0,0,0.0,0,0,0,0.0,6.0,-10.0,-999.0,0.0,0.0,0.0,0.0,0.06437052557248535,0,10,6.0,0.06,0.0,0.0,0.0,0.0,0.0,0.0,0.0
3.1448521614074707,0.10345125198364258,0,0,0,0,0.0,0,0,0,0.0,6.0,-9.0,-996.0,0.0,0.0,0.0,0.0,0.6288489669334467,0,10,6.0,0.06,0.0,0.0,0.0,0.0,0.0,0.0,0.0
3.246054172515869,0.10120201110839844,0,0,0,0,0.0,0,0,0,0.0,6.0,-9.0,-999.0,0.0,0.0,0.0,0.0,0.48043172002235224,0,10,6.0,0.06,0.0,0.0,0.0,0.0,0.0,0.0,0.0
3.346558094024658,0.10050392150878906,0,0,0,0,0.0,0,0,0,0.0,5.0,-10.0,-997.0,0.0,0.0,0.0,0.0,0.7616979224934539,0,10,6.0,0.06,0.0,0.0,0.0,0.0,0.0,0.0,0.0
3.4490551948547363,0.10249710083007812,0,0,0,0,0.0,0,0,0,0.0,6.0,-10.0,-999.0,0.0,0.0,0.0,0.0,0.5867108844702216,0,10,6.0,0.06,0.0,0.0,0.0,0.0,0.0,0.0,0.0
3.554187297821045,0.1051321029663086,0,0,0,0,0.0,0,0,0,0.0,4.0,-9.0,-998.0,0.0,0.0,0.0,0.0,0.646721254051613,0,10,6.0,0.06,0.0,0.0,0.0,0.0,0.0,0.0,0.0
3.654768228530884,0.10058093070983887,0,0,0,0,0.0,0,0,0,0.0,6.0,-10.0,-998.0,0.0,0.0,0.0,0.0,0.6947295497167261,0,10,6.0,0.06,0.0,0.0,0.0,0.0,0.0,0.0,0.0
3.7563791275024414,0.10161089897155762,0,0,0,0,0.0,0,0,0,0.0,5.0,-9.0,-999.0,0.0,0.0,0.0,0.0,0.5331361862488393,0,10,6.0,0.06,0.0,0.0,0.0,0.0,0.0,0.0,0.0
3.858513116836548,0.10213398933410645,0,0,0,0,0.0,0,0,0,0.0,5.0,-11.0,-997.0,0.0,0.0,0.0,0.0,0.8038614954746208,0,10,6.0,0.06,0.0,0.0,0.0,0.0,0.0,0.0,0.0
3.962475299835205,0.10396218299865723,0,0,0,0,0.0,0,0,0,0.0,5.0,-13.0,-997.0,0.0,0.0,0.0,0.0,1.0204417428552688,0,10,6.0,0.06,0.0,0.0,0.0,0.0,0.0,0.0,0.0
4.064488172531128,0.10201287269592285,0,0,0,0,0.0,0,0,0,0.0,4.0,-10.0,-998.0,0.0,0.0,0.0,0.0,0.9937059407596962,0,10,6.0,0.06,0.0,0.0,0.0,0.0,0.0,0.0,0.0
4.166546106338501,0.10205793380737305,0,0,0,0,0.0,0,0,0,0.0,6.0,-9.0,-995.0,0.0,0.0,0.0,0.0,1.5723172990832381,0,10,6.0,0.06,0.0,0.0,0.0,0.0,0.0,0.0,0.0
4.2684571743011475,0.10191106796264648,0,0,0,0,0.0,0,0,0,0.0,6.0,-11.0,-1000.0,0.0,0.0,0.0,0.0,1.0352063857420717,0,10,6.0,0.06,0.0,0.0,0.0,0.0,0.0,0.0,0.0
4.371344089508057,0.10288691520690918,0,0,0,0,0.0,0,0,0,0.0,5.0,-9.0,-997.0,0.0,0.0,0.0,0.0,1.2055176550692295,0,10,6.0,0.06,0.0,0.0,0.0,0.0,0.0,0.0,0.0
4.472824335098267,0.10148024559020996,0,0,0,0,0.0,0,0,0,0.0,5.0,-10.0,-997.0,0.0,0.0,0.0,0.0,1.3417666705308875,0,10,6.0,0.06,0.0,0.0,0.0,0.0,0.0,0.0,0.0
4.574911117553711,0.10208678245544434,0,0,0,0,0.0,0,0,0,0.0,5.0,-10.0,-997.0,0.0,0.0,0.0,0.0,1.450765882900214,0,10,6.0,0.06,0.0,0.0,0.0,0.0,0.0,0.0,0.0
4.676986217498779,0.10207509994506836,0,0,0,0,0.0,0,0,0,0.0,4.0,-9.0,-1000.0,0.0,0.0,0.0,0.0,0.9379652527957205,0,10,6.0,0.06,0.0,0.0,0.0,0.0,0.0,0.0,0.0
4.778411149978638,0.1014249324798584,0,0,0,0,0.0,0,0,0,0.0,4.0,-9.0,-1000.0,0.0,0.0,0.0,0.0,0.5277247487121031,0,10,6.0,0.06,0.0,0.0,0.0,0.0,0.0,0.0,0.0
4.880413055419922,0.10200190544128418,0,0,0,0,0.0,0,0,0,0.0,5.0,-10.0,-999.0,0.0,0.0,0.0,0.0,0.3995323454450954,0,10,6.0,0.06,0.0,0.0,0.0,0.0,0.0,0.0,0.0
4.981654167175293,0.1012411117553711,0,0,0,0,0.0,0,0,0,0.0,6.0,-9.0,-1000.0,0.0,0.0,0.0,0.0,0.09697842283162572,0,10,6.0,0.06,0.0,0.0,0.0,0.0,0.0,0.0,0.0
5.084378004074097,0.10272383689880371,0,0,0,0,0.0,0,0,0,0.0,6.0,-10.0,-997.0,0.0,0.0,0.0,0.0,0.45493528474082723,0,10,6.0,0.06,0.0,0.0,0.0,0.0,0.0,0.0,0.0
5.186506271362305,0.10212826728820801,0,0,0,0,0.0,0,0,0,0.0,4.0,-11.0,-1001.0,0.0,0.0,0.0,0.0,-0.05869922573185704,0,10,6.0,0.06,0.0,0.0,0.0,0.0,0.0,0.0,0.0
5.289353132247925,0.10284686088562012,0,0,0,0,0.0,0,0,0,0.0,4.0,-10.0,-1000.0,0.0,0.0,0.0,0.0,-0.26960683410993624,0,10,6.0,0.06,0.0,0.0,0.0,0.0,0.0,0.0,0.0
5.3943750858306885,0.10502195358276367,0,0,0,0,0.0,0,0,0,0.0,5.0,-10.0,-998.0,0.0,0.0,0.0,0.0,-0.038332920812422344,0,10,6.0,0.06,0.0,0.0,0.0,0.0,0.0,0.0,0.0
5.49726128578186,0.10288619995117188,0,0,0,0,0.0,0,0,0,0.0,6.0,-10.0,-1001.0,0.0,0.0,0.0,0.0,-0.45331379017443396,0,10,6.0,0.06,0.0,0.0,0.0,0.0,0.0,0.0,0.0
5.599754095077515,0.1024928092956543,0,0,0,0,0.0,0,0,0,0.0,7.0,-10.0,-996.0,0.0,0.0,0.0,0.0,0.21470151433595674,0,10,6.0,0.06,0.0,0.0,0.0,0.0,0.0,0.0,0.0
5.705095052719116,0.10534095764160156,0,0,0,0,0.0,0,0,0,0.0,6.0,-11.0,-1000.0,0.0,0.0,0.0,0.0,-0.05088624205575343,0,10,6.0,0.06,0.0,0.0,0.0,0.0,0.0,0.0,0.0
5.8073859214782715,0.10229086875915527,0,0,0,0,0.0,0,0,0,0.0,6.0,-10.0,-998.0,0.0,0.0,0.0,0.0,0.13664355283083296,0,10,6.0,0.06,0.0,0.0,0.0,0.0,0.0,0.0,0.0
5.911851167678833,0.10446524620056152,0,0,0,0,0.0,0,0,0,0.0,6.0,-10.0,-1000.0,0.0,0.0,0.0,0.0,-0.11333261125980698,0,10,6.0,0.06,0.0,0.0,0.0,0.0,0.0,0.0,0.0
6.015956163406372,0.10410499572753906,0,0,0,0,0.0,0,0,0,0.0,5.0,-9.0,-1001.0,0.0,0.0,0.0,0.0,-0.5133135425323871,0,10,6.0,0.06,0.0,0.0,0.0,0.0,0.0,0.0,0.0
6.119593143463135,0.1036369800567627,0,0,0,0,0.0,0,0,0,0.0,6.0,-11.0,-1000.0,0.0,0.0,0.0,0.0,-0.6332982875503603,0,10,6.0,0.06,0.0,0.0,0.0,0.0,0.0,0.0,0.0
6.225013256072998,0.10542011260986328,0,0,0,0,0.0,0,0,0,0.0,9.0,-23.0,-987.0,0.0,0.0,0.0,0.0,1.870713916435193,0,10,6.0,0.06,0.0,0.0,0.0,0.0,0.0,0.0,0.0
6.326808929443359,0.10179567337036133,0,0,0,0,0.0,0,0,0,0.0,3.0,-14.0,-1000.0,0.0,0.0,0.0,0.0,1.2739236796236355,0,10,6.0,0.06,0.0,0.0,0.0,0.0,0.0,0.0,0.0
6.429358959197998,0.10255002975463867,0,0,0,0,0.0,0,0,0,0.0,10.0,-3.0,-1001.0,0.0,0.0,0.0,0.0,0.5964914901743441,0,10,6.0,0.06,0.0,0.0,0.0,0.0,0.0,0.0,0.0
6.5300822257995605,0.1007232666015625,0,0,0,0,0.0,0,0,0,0.0,5.0,-15.0,-995.0,0.0,0.0,0.0,0.0,1.2545457386149792,0,10,6.0,0.06,0.0,0.0,0.0,0.0,0.0,0.0,0.0
6.633771181106567,0.10368895530700684,0,0,0,0,0.0,0,0,0,0.0,6.0,-14.0,-996.0,0.0,0.0,0.0,0.0,1.5809891373673963,0,10,6.0,0.06,0.0,0.0,0.0,0.0,0.0,0.0,0.0
6.736353158950806,0.10258197784423828,0,0,0,0,0.0,0,0,0,0.0,16.0,-10.0,-992.0,0.0,0.0,0.0,0.0,2.6421438563694437,0,10,6.0,0.06,0.0,0.0,0.0,0.0,0.0,0.0,0.0
6.840390205383301,0.10403704643249512,0,0,0,0,0.0,0,0,0,0.0,12.0,21.0,-994.0,0.0,0.0,0.0,0.0,3.09106763157115,0,10,6.0,0.06,0.0,0.0,0.0,0.0,0.0,0.0,0.0
6.9427642822265625,0.10237407684326172,0,0,0,0,0.0,0,0,0,0.0,-6.0,-3.0,-1015.0,0.0,0.0,0.0,0.0,-0.7497933482675307,0,10,6.0,0.06,0.0,0.0,0.0,0.0,0.0,0.0,0.0
7.048187017440796,0.1054227352142334,0,0,0,0,0.0,0,0,0,0.0,23.0,-3.0,-1029.0,0.0,0.0,0.0,0.0,-4.0,0,10,6.0,0.06,0.0,0.0,0.0,0.0,0.0,0.0,0.0
7.15369725227356,0.10551023483276367,0,1,-1,0,0.0,0,0,0,0.0,17.0,-5.0,-1130.0,0.0,0.0,0.0,0.0,-4.0,0,10,6.0,0.06,0.0,0.0,0.0,0.0,0.0,0.0,0.0
7.259278059005737,0.10558080673217773,0,0,-2,0,0.0,0,0,2,0.0,-21.0,-1.0,-1303.0,0.0,0.0,0.0,-0.042232322692871097,-4.0,0,16,9.6,0.096,0.0,0.0,0.03572464637994781,0.0,0.03572464637994781,0.0,0.03572464637994781
7.364715099334717,0.10543704032897949,0,0,0,0,0.0,0,0,5,0.0,52.0,-12.0,-1280.0,0.0,0.0,0.0,-0.04639804840087891,-4.0,0,13,7.8,0.078,0.0,0.0,0.04969954408771104,0.0,0.01397489770776323,0.0,0.04969954408771104
7.470152139663696,0.10543704032897949,1,-1,2,0,0.0,0,0,7,0.0,-5.0,-18.0,-1157.0,0.0,0.0,0.0296875,-0.02009587097167969,-4.0,10,16,13.6,0.136,0.0,0.0,0.08294841695777445,0.0,0.033248872870063416,0.0,0.08294841695777445
7.570693016052246,0.1005408763885498,1,-1,1,0,0.0,0,0,8,0.0,-2.0,-4.0,-1061.0,0.0,0.0,0.042265625,-0.004186875152587886,-4.0,10,22,17.2,0.172,0.0,0.0,0.1183164789163623,0.0,0.03536806195858784,0.0,0.1183164789163623
7.67616605758667,0.10547304153442383,1,0,0,0,0.0,0,0,8,0.0,11.0,-4.0,-1013.0,0.0,0.0,0.05169921875,0.003921392745971683,-4.0,20,31,26.599999999999998,0.26599999999999996,0.0,0.0,0.17763804808179856,0.0,0.059321569165436266,0.0,0.17763804808179856
7.7815961837768555,0.10543012619018555,1,0,0,0,0.0,0,0,8,0.0,-5.0,8.0,-946.0,0.0,0.0,0.0587744140625,0.011117061454772953,-4.0,30,40,36.0,0.36,0.0,0.0,0.2512860727643036,0.0,0.07364802468250503,0.0,0.2512860727643036
7.887056112289429,0.10545992851257324,1,0,0,0,0.0,0,0,7,0.0,-11.0,-5.0,-894.0,0.0,0.0,0.061580810546875,0.014350464232635501,-4.0,40,47,44.2,0.442,0.0,0.0,0.3284796830178397,0.0,0.0771936102535361,0.0,0.3284796830178397
7.989225149154663,0.10216903686523438,1,0,0,0,0.0,0,0,6,0.0,-7.0,9.0,-886.0,0.0,0.0,0.06118560791015625,0.02024200733221175,-3.5490288763337503,40,54,48.4,0.484,0.0,0.0,0.39192867364671446,0.0,0.06344899062887477,0.0,0.39192867364671446
8.09319806098938,0.1039729118347168,1,0,0,0,0.0,0,0,4,0.0,1.0,28.0,-873.0,0.0,0.0,0.05588920593261719,0.09391365080646337,4.0,50,60,56.0,0.56,0.0,0.0,0.4650158896292548,0.0,0.07308721598254031,0.0,0.4650158896292548
8.195076942443848,0.10187888145446777,1,0,0,0,0.0,0,0,3,0.0,-36.0,1.0,-867.0,0.0,0.0,0.04941690444946289,0.09461813166695004,4.0,50,65,59.0,0.59,0.0,0.0,0.5207932874292771,0.0,0.05577739780002233,0.0,0.5207932874292771
8.295769929885864,0.1006929874420166,1,0,0,0,0.0,0,0,2,0.0,-23.0,-7.0,-899.0,0.0,0.0,0.04206267833709717,0.0875954186468891,4.0,50,69,61.4,0.614,0.0,0.0,0.5633681190914399,0.0,0.042574831662162804,0.0,0.5633681190914399
8.399119138717651,0.10334920883178711,1,0,0,0,0.0,0,0,1,0.0,-4.0,10.0,-919.0,0.0,0.0,0.03404700875282288,0.08074153327494435,4.0,60,72,67.19999999999999,0.6719999999999999,0.0,0.0,0.6118276156051625,0.0,0.04845949651372261,0.0,0.6118276156051625
8.50110912322998,0.1019899845123291,1,0,0,0,0.0,0,0,1,0.0,-30.0,5.0,-916.0,0.0,0.0,0.028035256564617157,0.07410187804058152,4.0,60,75,69.0,0.69,0.0,0.0,0.6476311589993136,0.0,0.03580354339415104,0.0,0.6476311589993136
8.606835126876831,0.10572600364685059,1,0,0,0,0.0,0,0,0,0.0,0.0,1.0,-990.0,0.0,0.0,0.02102644242346287,0.06862438744391497,4.0,60,79,71.4,0.7140000000000001,0.0,0.0,0.6785319247418831,0.0,0.030900765742569503,0.0,0.6785319247418831
8.707305192947388,0.10047006607055664,1,0,0,0,0.0,0,0,0,0.0,-9.0,10.0,-976.0,0.0,0.0,0.01576983181759715,0.06124331380845159,4.0,60,80,72.0,0.72,0.0,0.0,0.6988110267159588,0.0,0.020279101974075786,0.0,0.6988110267159588
8.811151027679443,0.10384583473205566,1,0,0,0,0.0,0,0,0,0.0,-8.0,4.0,-992.0,0.0,0.0,0.011827373863197863,0.05830730175054551,4.0,60,81,72.6,0.726,0.0,0.0,0.7133195982823308,0.0,0.014508571566371975,0.0,0.7133195982823308
8.912292957305908,0.10114192962646484,1,0,0,0,0.0,0,0,0,0.0,-13.0,8.0,-1000.0,0.0,0.0,0.008870530397398397,0.05427097938329905,4.0,60,85,75.0,0.75,0.0,0.0,0.7312852019159255,0.0,0.017965603633594673,0.0,0.7312852019159255
9.017604112625122,0.10531115531921387,1,0,0,0,0.0,0,0,0,0.0,5.0,-6.0,-1009.0,0.0,0.0,0.006652897798048798,0.053539168084259375,4.0,70,87,80.19999999999999,0.8019999999999999,0.0,0.0,0.762954084137025,0.0,0.03166888222109954,0.0,0.762954084137025
9.119563102722168,0.1019589900970459,1,0,0,0,0.0,0,0,0,0.0,-20.0,10.0,-971.0,0.0,0.0,0.004989673348536599,0.05062821886092724,4.0,70,88,80.8,0.8079999999999999,0.0,0.0,0.7840696517214985,0.0,0.021115567584473416,0.0,0.7840696517214985
9.22079610824585,0.10123300552368164,1,0,0,0,0.0,0,0,0,0.0,-3.0,-13.0,-993.0,0.0,0.0,0.0037422550114024488,0.048924053605827585,4.0,70,89,81.4,0.8140000000000001,0.0,0.0,0.7990134284262509,0.0,0.014943776704752443,0.0,0.7990134284262509
9.321985244750977,0.10118913650512695,1,0,0,0,0.0,0,0,0,0.0,-8.0,7.0,-968.0,0.0,0.0,0.0028066912585518367,0.0478940820953302,4.0,70,89,81.4,0.8140000000000001,0.0,0.0,0.8079158735423099,0.0,0.008902445116058977,0.0,0.8079158735423099
9.423181295394897,0.1011960506439209,1,0,0,0,0.0,0,0,0,0.0,-13.0,-18.0,-964.0,0.0,0.0,0.0021050184439138776,0.047162345066623874,4.0,70,90,82.0,0.82,0.0,0.0,0.8156131099612949,0.0,0.0076972364189850095,0.0,0.8156131099612949
9.526273250579834,0.10309195518493652,1,0,0,0,0.0,0,0,0,0.0,0.0,4.0,-994.0,0.0,0.0,0.001578763832935408,0.047373904030278864,4.0,70,90,82.0,0.82,0.0,0.0,0.8202981870115119,0.0,0.004685077050217035,0.0,0.8202981870115119
9.627022981643677,0.10074973106384277,1,0,0,0,0.0,0,0,0,0.0,-9.0,-1.0,-989.0,0.0,0.0,0.0011840728747015562,0.0461029484157964,4.0,70,90,82.0,0.82,0.0,0.0,0.8229658279993921,0.0,0.002667640987880193,0.0,0.8229658279993921
9.727410078048706,0.1003870964050293,1,0,0,0,0.0,0,0,0,0.0,-5.0,0.0,-988.0,0.0,0.0,0.0008880546560261671,0.04556438259401492,4.0,70,90,82.0,0.82,0.0,0.0,0.8245239424404959,0.0,0.001558114441103764,0.0,0.8245239424404959
9.8280029296875,0.10059285163879395,1,0,0,0,0.0,0,0,0,0.0,3.0,1.0,-992.0,0.0,0.0,0.0006660409920196253,0.045393015807736734,4.0,70,89,81.4,0.8140000000000001,0.0,0.0,0.8230540932070487,0.0,0.0014698492334471736,0.0,0.825993791673943
9.93279218673706,0.10478925704956055,1,0,0,0,0.0,0,0,0,0.0,-7.0,1.0,-970.0,0.0,0.0,0.000499530744014719,0.04690458207021114,4.0,70,89,81.4,0.8140000000000001,0.0,0.0,0.8223815137086438,0.0,0.0006725794984049349,0.0,0.826666371172348
10.035690069198608,0.10289788246154785,1,0,0,0,0.0,0,0,0,0.0,-10.0,-2.0,-990.0,0.0,0.0,0.0003746480580110392,0.046186794443850196,4.0,70,88,80.8,0.8079999999999999,0.0,0.0,0.8194804222327616,0.0,0.002901091475882134,0.0,0.8295674626482301
10.141211032867432,0.10552096366882324,1,0,0,0,0.0,0,0,0,0.0,-21.0,8.0,-984.0,0.0,0.0,0.00028098604350827944,0.04707995235107178,4.0,70,87,80.19999999999999,0.8019999999999999,0.0,0.0,0.8154690065045973,0.0,0.004011415728164325,0.0,0.8335788783763944
10.246647119522095,0.10543608665466309,1,0,0,0,0.0,0,0,0,0.0,13.0,3.0,-1018.0,0.0,0.0,0.00021073953263120955,0.0470720954763405,4.0,70,87,80.19999999999999,0.8019999999999999,0.0,0.0,0.8130592624253543,0.0,0.0024097440792429925,0.0,0.8359886224556374
10.352076292037964,0.10542917251586914,1,0,0,0,0.0,0,0,0,0.0,-33.0,-6.0,-996.0,0.0,0.0,0.00015805464947340719,0.04702112773850777,4.0,70,86,79.6,0.7959999999999999,0.0,0.0,0.809209996608153,0.0,0.0038492658172013527,0.0,0.8398378882728388
10.457572221755981,0.10549592971801758,1,0,0,0,0.0,0,0,0,0.0,20.0,5.0,-1019.0,0.0,0.0,0.00011854098710505538,0.026932944590450675,2.09715625876197,70,85,79.0,0.79,0.0,0.0,0.8032307875826599,0.0,0.005979209025493093,0.0,0.8458170972983319
10.56018614768982,0.10261392593383789,1,0,0,0,0.0,0,0,0,0.0,13.0,-6.0,-1010.0,0.0,0.0,8.890574032879155e-05,-0.0028183535312953276,-0.5449224465148745,70,84,78.4,0.784,0.0,0.0,0.7953649511572866,0.0,0.007865836425373307,0.0,0.8536829337237052
10.66431212425232,0.1041259765625,1,0,0,0,0.0,0,0,0,0.0,-1.0,-9.0,-1002.0,0.0,0.0,6.667930524659366e-05,-0.011244447945181126,-1.0585854107363275,70,83,77.8,0.778,0.0,0.0,0.7877164672204531,0.0,0.007648483936833483,0.0,0.8613314176605387
10.769767045974731,0.10545492172241211,1,0,0,0,0.0,0,0,0,0.0,-13.0,-22.0,-1009.0,0.0,0.0,5.000947893494523e-05,-0.031339892481876845,-2.869515782113467,70,83,77.8,0.778,0.0,0.0,0.7818469127871928,0.0,0.0058695544332603156,0.0,0.867200972093799
10.873059034347534,0.10329198837280273,1,0,0,0,0.0,0,0,0,0.0,8.0,-9.0,-999.0,0.0,0.0,3.7507109201208926e-05,-0.027046002164649297,-2.318260079215179,70,82,77.19999999999999,0.7719999999999999,0.0,0.0,0.7762319664676425,0.0,0.005614946319550285,0.0,0.8728159184133493
10.978507280349731,0.10544824600219727,1,0,0,0,0.0,0,0,0,0.0,0.0,-15.0,-1042.0,0.0,0.0,2.813033190090669e-05,-0.044858581318633024,-4.0,70,81,76.6,0.7659999999999999,0.0,0.0,0.7693010246496674,0.0,0.006930941817975045,0.0,0.8797468602313243
11.08396315574646,0.10545587539672852,1,0,0,0,0.0,0,0,0,0.0,-17.0,12.0,-1011.0,0.0,0.0,2.1097748925680022e-05,-0.0466492203165216,-4.0,70,81,76.6,0.7659999999999999,0.0,0.0,0.7650289541707682,0.0,0.004272070478899215,0.0,0.8840189307102235
11.186253309249878,0.10229015350341797,1,0,0,0,0.0,0,0,0,0.0,-49.0,5.0,-1006.0,0.0,0.0,1.5823311694260016e-05,-0.045566742452494514,-4.0,70,80,76.0,0.76,0.0,0.0,0.7602207550543911,0.0,0.004808199116377088,0.0,0.8888271298266006
11.289215087890625,0.10296177864074707,1,0,0,0,0.0,0,0,0,0.0,-6.0,0.0,-1009.0,0.0,0.0,1.186748377069501e-05,-0.04573070496615466,-4.0,70,80,76.0,0.76,0.0,0.0,0.7573073441995484,0.0,0.0029134108548427573,0.0,0.8917405406814434
11.394673109054565,0.10545802116394043,1,0,0,0,0.0,0,0,0,0.0,-28.0,10.0,-974.0,0.0,0.0,8.90061282802126e-06,-0.0370792352394495,-3.0831391425251695,70,79,75.4,0.754,0.0,0.0,0.7536382248549542,0.0,0.0036691193445941295,0.0,0.8954096600260375
11.498536109924316,0.10386300086975098,1,0,0,0,0.0,0,0,0,0.0,-12.0,0.0,-1017.0,0.0,0.0,6.675459621015944e-06,-0.04524711595818643,-4.0,70,79,75.4,0.754,0.0,0.0,0.7509632341665012,0.0,0.002674990688453005,0.0,0.8980846507144905
11.603981256484985,0.10544514656066895,1,0,0,0,0.0,0,0,0,0.0,-3.0,7.0,-1016.0,0.0,0.0,5.006594715761958e-06,-0.04669826428484204,-4.0,60,79,71.4,0.7140000000000001,0.0,0.0,0.7332234773069144,0.0,0.01773975685958684,0.0,0.9158244075740773
11.709449052810669,0.1054677963256836,1,0,0,0,0.0,0,0,0,0.0,-5.0,-12.0,-1015.0,0.0,0.0,3.754946036821469e-06,-0.0468535655073245,-4.0,60,79,71.4,0.7140000000000001,0.0,0.0,0.7225691610017135,0.0,0.010654316305200862,0.0,0.9264787238792782
11.811249017715454,0.10179996490478516,1,0,0,0,0.0,0,0,0,0.0,-3.0,-7.0,-1019.0,0.0,0.0,2.816209527616102e-06,-0.04540280792407166,-4.0,60,79,71.4,0.7140000000000001,0.0,0.0,0.7163682940490785,0.0,0.006200866952634998,0.0,0.9326795908319132
11.911586999893188,0.10033798217773438,1,0,0,0,0.0,0,0,0,0.0,-17.0,19.0,-1003.0,0.0,0.0,2.112157145712076e-06,-0.044673572722069774,-4.0,60,79,71.4,0.7140000000000001,0.0,0.0,0.7127315027432854,0.0,0.0036367913057930856,0.0,0.9363163821377063
12.017054080963135,0.10546708106994629,1,0,0,0,0.0,0,0,0,0.0,-25.0,8.0,-1009.0,0.0,0.0,1.5841178592840573e-06,-0.04665276399411214,-4.0,60,80,72.0,0.72,0.0,0.0,0.7126867031405888,0.0,4.479960269665462e-05,0.0,0.936361181740403
12.122512102127075,0.10545802116394043,1,0,0,0,0.0,0,0,0,0.0,-17.0,-5.0,-992.0,0.0,0.0,1.188088394463043e-06,-0.046847415585432366,-4.0,70,80,76.0,0.76,0.0,0.0,0.7286477604377826,0.0,0.01596105729719377,0.0,0.9523222390375967
12.226316213607788,0.10380411148071289,1,0,0,0,0.0,0,0,0,0.0,14.0,-14.0,-1006.0,0.0,0.0,8.910662958472822e-07,-0.04620558419116213,-4.0,70,80,76.0,0.76,0.0,0.0,0.7383108584952232,0.0,0.009663098057440589,0.0,0.9619853370950373
12.327255249023438,0.10093903541564941,1,0,0,0,0.0,0,0,0,0.0,-20.0,-13.0,-991.0,0.0,0.0,6.682997218854616e-07,-0.0445324931599297,-3.9541230056548784,70,80,76.0,0.76,0.0,0.0,0.7442894749546036,0.0,0.00597861645938047,0.0,0.9679639535544178
12.427687168121338,0.10043191909790039,1,0,0,0,0.0,0,0,0,0.0,-13.0,-2.0,-1001.0,0.0,0.0,5.012247914140962e-07,-0.04046714064417839,-3.5859458580484898,70,80,76.0,0.76,0.0,0.0,0.7481351694155826,0.0,0.0038456944609789323,0.0,0.9718096480153967
12.528136014938354,0.1004488468170166,1,0,0,0,0.0,0,0,0,0.0,-18.0,6.0,-1006.0,0.0,0.0,3.7591859356057215e-07,-0.04422591446449028,-4.0,70,80,76.0,0.76,0.0,0.0,0.750215636384918,0.0,0.0020804669693353928,0.0,0.9738901149847321
12.62961220741272,0.10147619247436523,1,0,-1,0,0.0,0,0,0,0.0,-35.0,-27.0,-1000.0,0.0,0.0,2.819389451704291e-07,-0.04501281469114447,-4.0,70,80,76.0,0.76,0.0,0.0,0.7513887444025038,0.0,0.0011731080175858555,0.0,0.975063223002318
12.735034942626953,0.1054227352142334,1,0,-1,0,0.0,0,0,0,0.0,14.0,-13.0,-1000.0,0.0,0.0,2.1145420887782182e-07,-0.040680665911954926,-3.4318569593272867,70,81,76.6,0.7659999999999999,0.0,0.0,0.7546600463990374,0.0,0.003271301996533582,0.0,0.9783345249988515
12.840469121932983,0.10543417930603027,1,0,-1,0,0.0,0,0,0,0.0,-4.0,-9.0,-992.0,0.0,0.0,1.5859065665836638e-07,-0.018842449220538123,-1.4013032071933242,70,81,76.6,0.7659999999999999,0.0,0.0,0.7580040449376126,0.0,0.0033439985385752546,0.0,0.9816785235374268
12.942633152008057,0.10216403007507324,1,0,0,0,0.0,0,0,0,0.0,-10.0,-5.0,-1001.0,0.0,0.0,1.1894299249377478e-07,-0.015523183193930014,-1.3350144185333193,70,81,76.6,0.7659999999999999,0.0,0.0,0.7602508803897563,0.0,0.0022468354521436584,0.0,0.9839253589895705
13.048288106918335,0.10565495491027832,1,0,0,0,0.0,0,0,0,0.0,0.0,9.0,-1007.0,0.0,0.0,8.920724437033109e-08,-0.02998038344219091,-2.6906589883511742,70,81,76.6,0.7659999999999999,0.0,0.0,0.7606499825973873,0.0,0.0003991022076309525,0.0,0.9843244611972014
13.151372194290161,0.10308408737182617,1,0,0,0,0.0,0,0,0,0.0,-34.0,15.0,-996.0,0.0,0.0,6.690543327774831e-08,-0.01923552219424568,-1.5751746442055037,70,81,76.6,0.7659999999999999,0.0,0.0,0.7616002638081237,0.0,0.0009502812107364811,0.0,0.9852747424079379
13.256795167922974,0.1054229736328125,1,0,-1,0,0.0,0,0,0,0.0,-25.0,10.0,-999.0,0.0,0.0,5.0179074958311225e-08,-0.01927257322525509,-1.6456627591842232,70,81,76.6,0.7659999999999999,0.0,0.0,0.7621410950974967,0.0,0.0005408312893729894,0.0,0.9858155736973109
13.357227087020874,0.10043191909790039,1,0,-1,0,0.0,0,0,0,0.0,5.0,-11.0,-1001.0,0.0,0.0,3.7634306218733424e-08,-0.019408999521728587,-1.7406593667733812,70,81,76.6,0.7659999999999999,0.0,0.0,0.7625150872166555,0.0,0.0003739921191587836,0.0,0.9861895658164697
13.47205400466919,0.11482691764831543,1,0,0,0,0.0,0,0,0,0.0,-27.0,-16.0,-988.0,0.0,0.0,2.8225729664050064e-08,0.009751385475773372,1.018250795566928,70,82,77.19999999999999,0.7719999999999999,0.0,0.0,0.7669808852521833,0.0,0.004465798035527824,0.0,0.9906553638519975
13.577503204345703,0.10544919967651367,1,0,0,0,0.0,0,0,0,0.0,-3.0,7.0,-1004.0,0.0,0.0,2.116929724803755e-08,-0.001218679435592471,-0.20804681707090822,70,82,77.19999999999999,0.7719999999999999,0.0,0.0,0.7689114258886227,0.0,0.0019305406364393818,0.0,0.9925859044884369
13.682897090911865,0.10539388656616211,1,0,0,0,0.0,0,0,0,0.0,-20.0,-9.0,-1004.0,0.0,0.0,1.5876972936028163e-08,-0.012654081636783403,-1.1890849071812681,70,82,77.19999999999999,0.7719999999999999,0.0,0.0,0.7693466578263979,0.0,0.0004352319377751712,0.0,0.993021136426212
13.785298109054565,0.1024010181427002,1,0,0,0,0.0,0,0,0,0.0,-3.0,8.0,-986.0,0.0,0.0,1.1907729702021123e-08,0.01538587462817702,1.6260846207304667,70,82,77.19999999999999,0.7719999999999999,0.0,0.0,0.7713533122320034,0.0,0.0020066544056055458,0.0,0.9950277908318176
13.890860319137573,0.10556221008300781,1,0,0,0,0.0,0,0,0,0.0,5.0,1.0,-1015.0,0.0,0.0,8.930797276515842e-09,-0.01874813634300372,-1.9217797569401682,70,82,77.19999999999999,0.7719999999999999,0.0,0.0,0.770424530514819,0.0,0.0009287817171844681,0.0,0.995956572549002
13.996279239654541,0.10541892051696777,1,0,-1,0,0.0,0,0,0,0.0,-27.0,6.0,-1017.0,0.0,0.0,6.698097957386882e-09,-0.04404237581279932,-4.0,70,82,77.19999999999999,0.7719999999999999,0.0,0.0,0.7682689784797785,0.0,0.0021555520350404755,0.0,0.9981121245840425
14.099222183227539,0.10294294357299805,1,0,0,0,0.0,0,0,0,0.0,-12.0,-24.0,-1012.0,0.0,0.0,5.023573468040162e-09,-0.045581410489263036,-4.0,70,83,77.8,0.778,0.0,0.0,0.7693460163470828,0.0,0.0010770378673042869,0.0,0.9991891624513468
14.203914165496826,0.10469198226928711,1,0,0,0,0.0,0,0,0,0.0,-13.0,22.0,-980.0,0.0,0.0,3.767680101030122e-09,-0.021551855613070593,-1.6232110221531002,70,82,77.19999999999999,0.7719999999999999,0.0,0.0,0.7690538259168214,0.0,0.00029219043026140756,0.0,0.9994813528816082
14.304976224899292,0.10106205940246582,1,0,0,0,0.0,0,0,0,0.0,-26.0,17.0,-979.0,0.0,0.0,2.8257600757725916e-09,0.024917157014035785,2.678783728752933,70,83,77.8,0.778,0.0,0.0,0.7741432030714687,0.0,0.005089377154647301,0.0,1.0045707300362556
14.409055233001709,0.10407900810241699,1,0,0,0,0.0,0,0,0,0.0,-16.0,-13.0,-983.0,0.0,0.0,2.1193200568294435e-09,0.04412332084975843,4.0,70,82,77.19999999999999,0.7719999999999999,0.0,0.0,0.7760413087238177,0.0,0.001898105652349047,0.0,1.0064688356886047
14.514496088027954,0.10544085502624512,1,0,0,0,0.0,0,0,0,0.0,-4.0,-3.0,-1018.0,0.0,0.0,1.5894900426220828e-09,0.008984841251345969,0.4336561700577022,70,82,77.19999999999999,0.7719999999999999,0.0,0.0,0.7749932068405807,0.0,0.001048101883237007,0.0,1.0075169375718418
14.619914054870605,0.10541796684265137,1,0,0,0,0.0,0,0,0,0.0,-16.0,10.0,-981.0,0.0,0.0,1.192117531966562e-09,0.04226742055142265,3.9242774825215747,70,82,77.19999999999999,0.7719999999999999,0.0,0.0,0.7764693714272769,0.0,0.0014761645866961937,0.0,1.0089931021585379
14.722622156143188,0.10270810127258301,1,0,0,0,0.0,0,0,0,0.0,-15.0,-3.0,-1003.0,0.0,0.0,8.940881489749215e-10,0.028021894190722624,2.3167745324927864,70,82,77.19999999999999,0.7719999999999999,0.0,0.0,0.7764084681842003,0.0,6.090324307661543e-05,0.0,1.0090540054016146
14.825055122375488,0.1024329662322998,1,0,0,0,0.0,0,0,0,0.0,7.0,-2.0,-999.0,0.0,0.0,6.705661117311911e-10,0.02155533243474486,1.8307721724697785,70,82,77.19999999999999,0.7719999999999999,0.0,0.0,0.7759698668941686,0.0,0.0004386012900317038,0.0,1.0094926066916463
14.926622152328491,0.10156702995300293,1,0,0,0,0.0,0,0,0,0.0,-6.0,7.0,-996.0,0.0,0.0,5.029245837983934e-10,0.022895219400507136,2.0419702844512813,70,82,77.19999999999999,0.7719999999999999,0.0,0.0,0.7757771597972802,0.0,0.00019270709688834486,0.0,1.0096853137885347
15.027960300445557,0.10133814811706543,1,0,0,0,0.0,0,0,0,0.0,-6.0,7.0,-996.0,0.0,0.0,3.7719343784879505e-10,0.024694665037483684,2.2109287740364607,70,82,77.19999999999999,0.7719999999999999,0.0,0.0,0.77576780285233,0.0,9.356944950189572e-06,0.0,1.0096946707334848
15.129269123077393,0.10130882263183594,1,0,0,0,0.0,0,0,0,0.0,-6.0,7.0,-996.0,0.0,0.0,2.828950783865963e-10,0.026237484712685083,2.3460955657046725,70,82,77.19999999999999,0.7719999999999999,0.0,0.0,0.7758555349224356,0.0,8.773207010559503e-05,0.0,1.0097824028035904
15.229654312133789,0.10038518905639648,1,0,0,0,0.0,0,0,0,0.0,-6.0,7.0,-996.0,0.0,0.0,2.1217130878994723e-10,0.027260572867846507,2.4542289990391737,70,82,77.19999999999999,0.7719999999999999,0.0,0.0,0.775955255610136,0.0,9.972068770036646e-05,0.0,1.0098821234912907
15.333744049072266,0.10408973693847656,1,0,0,0,0.0,0,0,0,0.0,-6.0,7.0,-996.0,0.0,0.0,1.591284815924604e-10,0.029172508970080748,2.5407357457067974,70,82,77.19999999999999,0.7719999999999999,0.0,0.0,0.7761950886368001,0.0,0.00023983302666408246,0.0,1.0101219565179549
15.436304092407227,0.10256004333496094,1,0,0,0,0.0,0,0,0,0.0,-6.0,7.0,-996.0,0.0,0.0,1.193463611943453e-10,0.029684818677617443,2.609941143040942,70,82,77.19999999999999,0.7719999999999999,0.0,0.0,0.7763437389560601,0.0,0.00014865031926003525,0.0,1.010270606837215
15.540363073348999,0.10405898094177246,1,0,0,0,0.0,0,0,0,0.0,-11.0,-8.0,-992.0,0.0,0.0,8.9509770895759e-11,0.039028097439728494,3.4653054609083256,70,80,76.0,0.76,0.0,0.0,0.7722429778022407,0.0,0.00410076115381941,0.0,1.0143713679910342
15.643940210342407,0.1035771369934082,1,0,0,0,0.0,0,0,0,0.0,13.0,-31.0,-1007.0,0.0,0.0,6.713232817181925e-11,0.015810005521701823,1.1495969152022099,70,80,76.0,0.76,0.0,0.0,0.7683283197460171,0.0,0.003914658056223597,0.0,1.018286026047258
15.746096134185791,0.10215592384338379,1,0,0,0,0.0,0,0,0,0.0,-3.0,-21.0,-1023.0,0.0,0.0,5.0349246128864435e-11,-0.03829014920749104,-3.9029699213627964,60,80,72.0,0.72,0.0,0.0,0.7466500525077748,0.0,0.021678267238242288,0.0,1.0399642932855002
15.851243257522583,0.10514712333679199,1,0,0,0,0.0,0,0,0,0.0,-25.0,2.0,-1017.0,0.0,0.0,3.776193459664833e-11,-0.04588786422148016,-4.0,60,79,71.4,0.7140000000000001,0.0,0.0,0.7306950453532901,0.0,0.015955007154484724,0.0,1.055919300439985
15.955322980880737,0.1040797233581543,1,0,0,0,0.0,0,0,0,0.0,-37.0,13.0,-1002.0,0.0,0.0,2.8321450947486245e-11,-0.04622067573992043,-4.0,60,80,72.0,0.72,0.0,0.0,0.7235306461253113,0.0,0.007164399227978846,0.0,1.0630836996679638
16.05824303627014,0.1029200553894043,1,0,0,0,0.0,0,0,0,0.0,-13.0,-15.0,-1016.0,0.0,0.0,2.1241088210614686e-11,-0.045790089710636785,-4.0,60,80,72.0,0.72,0.0,0.0,0.719290756533604,0.0,0.004239889591707291,0.0,1.067323589259671
16.159394025802612,0.1011509895324707,1,0,-1,0,0.0,0,0,0,0.0,-10.0,-1.0,-1009.0,0.0,0.0,1.5930816157961014e-11,-0.045039404769714235,-4.0,60,80,72.0,0.72,0.0,0.0,0.7168409857039163,0.0,0.0024497708296876697,0.0,1.0697733600893589
16.26473903656006,0.10534501075744629,1,0,-1,0,0.0,0,0,0,0.0,-19.0,14.0,-995.0,0.0,0.0,1.1948112118470758e-11,-0.04664194476919664,-4.0,60,81,72.6,0.726,0.0,0.0,0.7175564937182741,0.0,0.0007155080143578241,0.0,1.0704888681037166
16.36815118789673,0.10341215133666992,1,0,-1,0,0.0,0,0,0,0.0,-46.0,0.0,-981.0,0.0,0.0,8.961084088853069e-12,-0.022909770768775744,-1.764355161756622,70,81,76.6,0.7659999999999999,0.0,0.0,0.735512407021867,0.0,0.01795591330359292,0.0,1.0884447814073095
16.468663215637207,0.10051202774047852,1,0,0,0,0.0,0,0,0,0.0,28.0,-13.0,-1030.0,0.0,0.0,6.7208130666398015e-12,-0.04249578816702025,-4.0,70,82,77.19999999999999,0.7719999999999999,0.0,0.0,0.7475446415096619,0.0,0.01203223448779489,0.0,1.1004770158951045
16.569910287857056,0.10124707221984863,1,0,0,0,0.0,0,0,0,0.0,28.0,-13.0,-1030.0,0.0,0.0,5.040609799979851e-12,-0.04474840770010493,-4.0,70,82,77.19999999999999,0.7719999999999999,0.0,0.0,0.7546083977461157,0.0,0.007063756236453722,0.0,1.1075407721315582
16.67174005508423,0.10182976722717285,1,0,0,0,0.0,0,0,0,0.0,-38.0,10.0,-967.0,0.0,0.0,3.780457349984888e-12,-0.037625165797411576,-3.25546507013496,70,83,77.8,0.778,0.0,0.0,0.7616662215226488,0.0,0.00705782377653319,0.0,1.1145985959080913
16.775448083877563,0.10370802879333496,1,0,0,0,0.0,0,0,0,0.0,-18.0,-1.0,-987.0,0.0,0.0,2.8353430124886663e-12,-0.006116891161350351,-0.22701950963244144,70,83,77.8,0.778,0.0,0.0,0.7678191104787772,0.0,0.006152888956128311,0.0,1.1207514848642197
16.87852931022644,0.10308122634887695,1,0,0,0,0.0,0,0,0,0.0,-18.0,-1.0,-987.0,0.0,0.0,2.1265072593664997e-12,0.022022236524568015,2.195736938769528,70,83,77.8,0.778,0.0,0.0,0.7732535137760048,0.0,0.0054344032972276635,0.0,1.1261858881614475
16.983492136001587,0.10496282577514648,1,0,0,0,0.0,0,0,0,0.0,4.0,-7.0,-1006.0,0.0,0.0,1.5948804445248746e-12,0.005707374273686764,0.3339420974911036,70,84,78.4,0.784,0.0,0.0,0.7779115455445165,0.0,0.00465803176851165,0.0,1.1308439199299591
17.085739135742188,0.10224699974060059,1,0,0,0,0.0,0,0,0,0.0,4.0,-7.0,-1006.0,0.0,0.0,1.1961603333936561e-12,-0.01124383974826012,-1.1554937755316814,70,84,78.4,0.784,0.0,0.0,0.7796571379988158,0.0,0.001745592454299283,0.0,1.1325895123842584
17.1860830783844,0.10034394264221191,1,0,0,0,0.0,0,0,0,0.0,-27.0,-12.0,-1004.0,0.0,0.0,8.971202500452421e-13,-0.020661775806815018,-1.9470424739497503,70,84,78.4,0.784,0.0,0.0,0.7801503123714224,0.0,0.0004931743726066529,0.0,1.133082686756865
17.289011240005493,0.10292816162109375,1,0,0,0,0.0,0,0,0,0.0,-3.0,-18.0,-1030.0,0.0,0.0,6.728401875339316e-13,-0.043237442228513445,-4.0,70,85,79.0,0.79,0.0,0.0,0.781419977157786,0.0,0.001269664786363589,0.0,1.1343523515432286
17.393963098526,0.10495185852050781,1,0,0,0,0.0,0,0,0,0.0,-39.0,11.0,-995.0,0.0,0.0,5.046301406504488e-13,-0.046304487630600306,-4.0,70,86,79.6,0.7959999999999999,0.0,0.0,0.7843361410738687,0.0,0.002916163916082737,0.0,1.1372685154593114
17.494466304779053,0.10050320625305176,1,0,0,0,0.0,0,0,0,0.0,-9.0,-29.0,-981.0,0.0,0.0,3.784726054878365e-13,-0.012471161506402626,-0.7801455332620435,70,86,79.6,0.7959999999999999,0.0,0.0,0.7882496496140654,0.0,0.003913508540196675,0.0,1.141182023999508
17.599932193756104,0.10546588897705078,1,0,0,0,0.0,0,0,0,0.0,-33.0,-5.0,-991.0,0.0,0.0,2.838544541158774e-13,0.00880627332828309,0.9532361198657782,70,86,79.6,0.7959999999999999,0.0,0.0,0.7919070466355247,0.0,0.0036573970214592855,0.0,1.1448394210209674
17.700453996658325,0.10052180290222168,1,0,0,0,0.0,0,0,0,0.0,-2.0,-27.0,-985.0,0.0,0.0,2.1289084058690804e-13,0.0364647569285332,3.5399414423681037,70,87,80.19999999999999,0.8019999999999999,0.0,0.0,0.7981435298466232,0.0,0.006236483211098487,0.0,1.1510759042320657
17.805826902389526,0.10537290573120117,1,1,0,0,0.0,0,0,0,0.0,-17.0,-17.0,-986.0,0.0,0.0,1.5966813044018101e-13,0.04579563798547749,4.0,70,87,80.19999999999999,0.8019999999999999,0.0,0.0,0.8025814895745802,0.0,0.004437959727957019,0.0,1.1555138639600226
17.910845041275024,0.10501813888549805,1,4,0,0,0.0,0,0,0,0.0,-16.0,1.0,-975.0,0.0,0.0,1.1975109783013577e-13,0.04658681935285475,4.0,70,87,80.19999999999999,0.8019999999999999,0.0,0.0,0.8052843703837671,0.0,0.0027028808091869028,0.0,1.1582167447692095
18.01128101348877,0.10043597221374512,1,4,0,0,0.0,0,0,0,0.0,-16.0,1.0,-975.0,0.0,0.0,8.981332337260182e-14,0.04483307082086436,4.0,70,87,80.19999999999999,0.8019999999999999,0.0,0.0,0.806672334063393,0.0,0.0013879636796259032,0.0,1.1596047084488355
18.116802215576172,0.10552120208740234,1,4,0,0,0.0,0,0,0,0.0,-16.0,1.0,-975.0,0.0,0.0,6.735999252945136e-14,0.046691787917108,4.0,70,87,80.19999999999999,0.8019999999999999,0.0,0.0,0.8077595845912098,0.0,0.0010872505278167743,0.0,1.1606919589766522
18.217200994491577,0.10039877891540527,1,8,0,0,0.0,0,-4,0,4.0,6.0,-47.0,-1032.0,0.0,-0.01,5.0519994397088526e-14,0.04482869035791838,4.0,70,88,80.8,0.8079999999999999,0.0,-0.0010039877891540527,0.8105561982181129,0.0010039877891540527,0.0029713699296705703,0.0010039877891540527,1.1636633289063227
18.321511030197144,0.1043100357055664,1,8,0,0,0.0,0,-4,0,4.0,6.0,-47.0,-1032.0,0.0,-0.0175,3.788999579781639e-14,-0.03724114524640063,-4.0,70,88,80.8,0.8079999999999999,0.0,-0.002829413414001465,0.8072029438166468,0.0018254256248474122,0.0038179174680447237,0.002829413414001465,1.1674812463743676
18.425904989242554,0.10439395904541016,1,7,0,0,0.0,0,-6,0,6.0,-14.0,-26.0,-953.0,0.0,-0.028125,2.8417496848362295e-14,0.03803346909354958,4.0,70,88,80.8,0.8079999999999999,0.0,-0.005765493512153625,0.8099040449389322,0.0029360800981521606,0.003989550553079454,0.005765493512153625,1.171470796927447
18.5267653465271,0.1008603572845459,1,5,0,0,0.0,0,-7,0,7.0,12.0,-45.0,-1022.0,0.0,-0.03859375,2.131312263627172e-14,-0.0006536067785298604,-0.4418935058231156,70,88,80.8,0.8079999999999999,0.0,-0.009658072926104069,0.8091028731554357,0.0038925794139504435,0.003974172960577044,0.009658072926104069,1.175444969888024
18.632077932357788,0.10531258583068848,1,5,0,0,0.0,0,-7,0,7.0,12.0,-45.0,-1022.0,0.0,-0.0464453125,1.598484197720379e-14,-0.042190395010114,-4.0,70,88,80.8,0.8079999999999999,0.0,-0.014549348885193467,0.8059958161358214,0.004891275959089399,0.005794685826781347,0.014549348885193467,1.1812396557148055
18.7324321269989,0.10035419464111328,1,4,0,0,0.0,0,-8,0,8.0,0.0,-41.0,-982.0,0.0,-0.054833984375,1.198863148290284e-14,-0.01667210632922893,-1.2409114409978563,70,88,80.8,0.8079999999999999,0.0,-0.02005216922610998,0.8057936201993083,0.005502820340916514,0.005506533837283389,0.02005216922610998,1.186746189552089
18.837892055511475,0.10545992851257324,1,-1,0,0,0.0,0,-7,0,7.0,-18.0,-50.0,-994.0,0.0,-0.05862548828125,8.991473612177131e-15,0.01608742834978,1.6835436201322707,70,89,81.4,0.8140000000000001,0.0,-0.026234809029265303,0.8100941195458164,0.006182639803155325,0.007531223643265232,0.026234809029265303,1.1942774131953542
18.941120147705078,0.10322809219360352,1,-1,0,0,0.0,0,-7,0,7.0,-18.0,-50.0,-994.0,0.0,-0.0614691162109375,6.743605209132848e-15,0.02703985336404645,2.463584281046919,70,89,81.4,0.8140000000000001,0.0,-0.032580148624547285,0.813331235213069,0.0063453395952819845,0.007123359630302655,0.032580148624547285,1.2014007728256568
19.04656219482422,0.10544204711914062,1,-4,0,0,0.0,0,-6,0,6.0,22.0,-42.0,-1006.0,0.0,-0.06110183715820312,5.057703906849636e-15,0.025847060735313145,2.1948621096813703,70,99,87.4,0.8740000000000001,0.0,-0.039022851417248594,0.8392339613254081,0.0064427027927013115,0.02669193959467784,0.039022851417248594,1.2280927124203347
19.151543140411377,0.1049809455871582,1,-3,0,0,0.0,0,-4,0,4.0,24.0,-7.0,-979.0,0.0,-0.05582637786865234,3.7932779301372274e-15,0.04457708430839801,4.0,70,135,109.0,1.09,0.0,-0.04488355735460572,0.9423482234725733,0.005860705937357124,0.10328068034360777,0.04488355735460572,1.3313733927639424
19.25274920463562,0.10120606422424316,1,-3,0,0,0.0,0,-4,0,4.0,24.0,-7.0,-979.0,0.0,-0.05186978340148926,2.8449584476029206e-15,0.04494013412053963,4.0,70,135,109.0,1.09,0.0,-0.05013309398483442,1.0041378625435737,0.005249536630228704,0.06201223372332766,0.05013309398483442,1.3933856264872702
19.35398006439209,0.10123085975646973,1,-1,0,0,0.0,0,-2,0,2.0,-1.0,-25.0,-1004.0,0.0,-0.04390233755111694,2.1337188357021904e-15,0.04498635731464378,4.0,70,136,109.6,1.0959999999999999,0.0,-0.05457736536045273,1.043615122103108,0.004444271375618314,0.039726635528206794,0.05457736536045273,1.433112262015477
19.45645499229431,0.10247492790222168,1,0,0,0,0.0,0,-1,0,1.0,-7.0,-17.0,-967.0,0.0,-0.03542675316333771,1.6002891267766427e-15,0.0454886068923545,4.0,70,131,106.6,1.0659999999999998,0.0,-0.05820771933667557,1.0553659382888647,0.0036303539762228354,0.012298827221492227,0.05820771933667557,1.4454110892369694
19.56107211112976,0.10461711883544922,1,0,0,0,0.0,0,-1,0,1.0,-7.0,-17.0,-967.0,0.0,-0.02907006487250328,1.200216845082482e-15,0.046395708223416224,4.0,70,131,106.6,1.0659999999999998,0.0,-0.061248945767996464,1.0625318341657173,0.0030412264313208937,0.007784543783964315,0.061248945767996464,1.4531956330209337
19.666510105133057,0.1054379940032959,1,2,0,0,0.0,0,-1,0,1.0,-7.0,-20.0,-992.0,0.0,-0.024302548654377462,9.001626338118616e-16,0.046814768423660794,4.0,70,145,115.0,1.15,0.0,-0.06381135774728153,1.1004807336628222,0.0025624119792850577,0.038035311595844085,0.06381135774728153,1.4912309446167777
19.77203607559204,0.10552597045898438,1,2,0,0,0.0,0,-2,0,2.0,2.0,-22.0,-997.0,0.0,-0.023226911490783094,6.751219753588962e-16,0.04689186502596044,4.0,70,153,119.8,1.198,0.0,-0.06626240012311135,1.142457425935791,0.0024510423758298213,0.04204819024533193,0.06626240012311135,1.5332791348621098
19.87392807006836,0.10189199447631836,1,2,0,0,0.0,0,-2,0,2.0,2.0,-22.0,-997.0,0.0,-0.02242018361808732,5.0634148151917215e-16,0.045445984293123846,4.0,70,153,119.8,1.198,0.0,-0.06854683734848355,1.167452804749814,0.0022844372253721964,0.02509955408952882,0.06854683734848355,1.5583786889516387
19.979384183883667,0.10545611381530762,1,1,0,0,0.0,0,-2,0,2.0,-13.0,-25.0,-1006.0,0.0,-0.02181513771356549,3.7975611113937906e-16,0.046727043955435775,4.0,70,160,124.0,1.24,0.0,-0.07084737699410192,1.1994282743292586,0.002300539645618372,0.03205812124075652,0.07084737699410192,1.5904368101923951
20.083735942840576,0.10435175895690918,1,1,0,0,0.0,0,-2,0,2.0,-13.0,-25.0,-1006.0,0.0,-0.02136135328517412,2.848170833545343e-16,0.03564402148442532,2.9679726914493814,70,160,124.0,1.24,0.0,-0.07307647178310979,1.2178886744004735,0.00222909478900787,0.0185944947327884,0.07307647178310979,1.6090313049251834
20.185991048812866,0.10225510597229004,1,1,0,0,0.0,0,-2,0,2.0,-4.0,9.0,-991.0,0.0,-0.021021014963880588,2.136128125159007e-16,0.04446644453735874,4.0,70,160,124.0,1.24,0.0,-0.07522597789588649,1.2294613572393112,0.002149506112776704,0.011770614453680444,0.07522597789588649,1.6208019193788639
20.288912057876587,0.1029210090637207,1,1,0,0,0.0,0,-2,0,2.0,-4.0,9.0,-991.0,0.0,-0.02076576122291044,1.6020960938692552e-16,0.045615048079224306,4.0,70,160,124.0,1.24,0.0,-0.07736321099492471,1.2364936624096692,0.002137233099038225,0.007349903491112567,0.07736321099492471,1.6281518228699765
20.389709949493408,0.10079789161682129,1,-4,0,0,0.0,0,-1,0,1.0,2.0,-8.0,-992.0,0.0,-0.01807432091718283,1.2015720704019415e-16,0.044880661454651055,4.0,60,160,120.0,1.2,0.0,-0.07918506443578255,1.2246105230751998,0.001821853440857841,0.012021986125527637,0.07918506443578255,1.6401738089955042
20.490334033966064,0.10062408447265625,1,-1,0,0,0.0,0,0,0,0.0,-1.0,3.0,-1013.0,0.0,-0.013555740687887124,9.01179052801456e-17,0.01833269223785038,1.3758759808788474,60,158,118.8,1.188,0.0,-0.08054909843184993,1.2110731400685315,0.0013640339960673774,0.013605929862073337,0.08054909843184993,1.6537797388575777
20.59106707572937,0.10073304176330566,1,-1,0,0,0.0,0,0,0,0.0,-1.0,3.0,-1013.0,0.0,-0.010166805515915343,6.758842896010921e-17,-0.015965922607832823,-1.7669665801853796,60,158,118.8,1.188,0.0,-0.08157323167648403,1.2008789064718122,0.0010241332446341066,0.010245547692888168,0.08157323167648403,1.6640252865504659
20.693141222000122,0.10207414627075195,1,0,0,0,0.0,0,0,0,0.0,3.0,-24.0,-1010.0,0.0,-0.007625104136936507,5.0691321720081905e-17,-0.0381358623811704,-3.579679228809482,60,156,117.6,1.176,0.0,-0.0823515576714874,1.1885917325261732,0.0007783259950033728,0.012311800636985901,0.0823515576714874,1.676337087187452
20.798413276672363,0.10527205467224121,1,0,0,0,0.0,0,0,0,0.0,-5.0,1.0,-1007.0,0.0,-0.00571882810270238,3.8018491290061426e-17,-0.04592240810701349,-4.0,60,155,117.0,1.17,0.0,-0.08295359045617623,1.1782544317615504,0.0006020327846888344,0.0103548167811947,0.08295359045617623,1.6866919039686465
20.898958921432495,0.10054564476013184,1,0,0,0,0.0,0,0,0,0.0,-5.0,1.0,-1007.0,0.0,-0.004289121077026785,2.851386846754607e-17,-0.04481049871475406,-4.0,60,155,117.0,1.17,0.0,-0.08338484290032015,1.1722493587657512,0.0004312524441439292,0.006020538211443985,0.08338484290032015,1.6927124421800905
21.003839254379272,0.10488033294677734,1,0,-1,0,0.0,0,0,0,0.0,-6.0,-6.0,-1022.0,0.0,-0.003216840807770089,2.1385401350659554e-17,-0.04643318305018632,-4.0,60,155,117.0,1.17,0.0,-0.08372222623527587,1.1684276586406015,0.0003373833349557071,0.0038365634832848946,0.08372222623527587,1.6965490056633754
21.10474419593811,0.10090494155883789,1,0,-1,0,0.0,0,0,0,0.0,-6.0,-6.0,-1022.0,0.0,-0.0024126306058275663,1.6039051012994666e-17,-0.04500529492855378,-4.0,60,155,117.0,1.17,0.0,-0.08396567258555995,1.1663318411915986,0.00024344635028409424,0.0021099092172441043,0.08396567258555995,1.6986589148806195
21.206902265548706,0.1021580696105957,1,0,-1,0,0.0,0,0,0,0.0,-7.0,13.0,-1042.0,0.0,-0.001809472954370675,1.2029288259745999e-17,-0.04536375733709365,-4.0,60,153,115.8,1.158,0.0,-0.08415052484959104,1.1602185403870544,0.0001848522640310897,0.006116094921300531,0.08415052484959104,1.70477500980192
21.311023950576782,0.10412168502807617,1,0,-1,0,0.0,0,0,0,0.0,-6.0,-21.0,-1016.0,0.0,-0.0013571047157780063,9.021966194809498e-18,-0.04618504974493983,-4.0,60,153,115.8,1.158,0.0,-0.08429182887935739,1.1564458051107034,0.00014130402976635442,0.0037753805495938622,0.08429182887935739,1.708550390351514
21.41358709335327,0.10256314277648926,1,0,-1,0,0.0,0,0,0,0.0,-1.0,-9.0,-1012.0,0.0,-0.0010178285368335049,6.766474646107123e-18,-0.04564376208508968,-4.0,60,153,115.8,1.158,0.0,-0.08439622057290264,1.1542586624538684,0.00010439169354523991,0.0021896325324191478,0.08439622057290264,1.7107400228839331
21.518963098526,0.10537600517272949,1,1,-1,0,0.0,0,0,0,0.0,-19.0,1.0,-984.0,0.0,-0.0007633714026251285,5.074855984580343e-18,-0.04671477827760076,-4.0,60,152,115.2,1.1520000000000001,0.0,-0.08447666160177437,1.150401627441867,8.044102887173931e-05,0.0038578737463700785,0.08447666160177437,1.7145978966303033
21.624110221862793,0.10514712333679199,1,1,0,0,0.0,0,0,0,0.0,-30.0,13.0,-986.0,0.0,-0.0005725285519688464,3.806141988435257e-18,-0.046730327162476874,-4.0,60,152,115.2,1.1520000000000001,0.0,-0.08453686133204208,1.1480928407808872,6.019973026770321e-05,0.0023095713570794787,0.08453686133204208,1.7169074679873828
21.729621171951294,0.10551095008850098,1,1,0,0,0.0,0,0,0,0.0,-30.0,13.0,-986.0,0.0,-0.0004293964139766348,2.854606491326443e-18,-0.02450845282340084,-1.8799394840550203,60,152,115.2,1.1520000000000001,0.0,-0.08458216735564535,1.1481041583829747,4.530602360327002e-05,4.6698221505225246e-05,0.08458216735564535,1.716954166208888
21.83296012878418,0.10333895683288574,1,1,0,0,0.0,0,0,0,0.0,-28.0,4.0,-990.0,0.0,-0.0003220473104824761,2.140954868494832e-18,0.000877398239411313,0.32207055536022616,60,152,115.2,1.1520000000000001,0.0,-0.08461544738876144,1.1497168966810576,3.328003311609555e-05,0.0016130816404346493,0.08461544738876144,1.7185672478493228
21.935230016708374,0.10226988792419434,1,1,0,0,0.0,0,0,0,0.0,6.0,-21.0,-986.0,0.0,-0.00024153548286185705,1.605716151371124e-18,0.028685414491912028,2.7962947108310505,60,148,112.8,1.128,0.0,-0.08464014919552343,1.1427903304837228,2.470180676199828e-05,0.006926610243497041,0.08464014919552343,1.7254938580928199
22.035657167434692,0.10042715072631836,1,1,0,0,0.0,0,0,0,0.0,6.0,-21.0,-986.0,0.0,-0.00018115161214639277,1.204287113528343e-18,0.04303940173971855,4.0,60,148,112.8,1.128,0.0,-0.08465834173578077,1.139467592981645,1.819254025734135e-05,0.003322787305295946,0.08465834173578077,1.7288166453981157
22.140982151031494,0.10532498359680176,1,1,0,0,0.0,0,0,0,0.0,-17.0,23.0,-974.0,0.0,-0.00013586370910979458,9.032153351462572e-19,0.04643393361269256,4.0,60,145,111.0,1.11,0.0,-0.08467265157871416,1.130614947766642,1.4309842933389758e-05,0.008852656780555626,0.08467265157871416,1.7376693021786713
22.245286226272583,0.10430407524108887,1,1,0,0,0.0,0,0,0,0.0,-17.0,23.0,-974.0,0.0,-0.00010189778183234592,6.774115013596929e-19,0.0463650234577048,4.0,60,145,111.0,1.11,0.0,-0.0846832799326173,1.1252706051971577,1.0628353903141068e-05,0.0053443531378371024,0.0846832799326173,1.7430136553165085
22.34689497947693,0.1016087532043457,1,1,0,0,0.0,0,0,0,0.0,1.0,-25.0,-993.0,0.0,-7.642333637425944e-05,5.080586260197697e-19,0.045280003627508766,4.0,60,143,109.8,1.0979999999999999,0.0,-0.084691045212542,1.1171228699465021,7.765279924704824e-06,0.008147738951043298,0.084691045212542,1.751161394267552
22.44912600517273,0.10223102569580078,1,1,0,0,0.0,0,0,0,0.0,-17.0,-19.0,-979.0,0.0,-5.731750228069458e-05,3.810439695148273e-19,0.04542041064107119,4.0,60,137,106.2,1.062,0.0,-0.08469690483959048,1.097859747068318,5.859627048476808e-06,0.019263123769400665,0.08469690483959048,1.7704245180369527
22.550039291381836,0.10091328620910645,1,1,0,0,0.0,0,0,0,0.0,-17.0,-19.0,-979.0,0.0,-4.298812671052093e-05,2.8578297713612046e-19,0.044907355547749696,4.0,60,137,106.2,1.062,0.0,-0.08470124291272482,1.0862348975349612,4.338073134332132e-06,0.01162485034278143,0.08470124291272482,1.782049368379734
22.65271306037903,0.10267376899719238,1,1,0,0,0.0,0,0,0,0.0,-21.0,2.0,-1008.0,0.0,-3.22410950328907e-05,2.1433723285209034e-19,0.045560243153651925,4.0,60,136,105.6,1.056,0.0,-0.08470455322746845,1.076947643649585,3.3103147436235464e-06,0.009287254475334312,0.08470455322746845,1.7913366228550685
22.75474214553833,0.10202908515930176,1,1,0,0,0.0,0,0,0,0.0,-21.0,2.0,-1008.0,0.0,-2.4180821274668026e-05,1.6075292463906778e-19,0.0453676583790859,4.0,60,136,105.6,1.056,0.0,-0.0847070203745415,1.0713458785978938,2.4671470730549598e-06,0.005601765594985628,0.0847070203745415,1.796938388450054
22.859105110168457,0.10436296463012695,1,1,0,0,0.0,0,0,0,0.0,1.0,4.0,-1003.0,0.0,-1.813561595600102e-05,1.2056469347930083e-19,0.044937550377576935,3.8711802297733557,60,136,105.6,1.056,0.0,-0.08470891306118807,1.068021416747108,1.8926866465617003e-06,0.0033244623895590034,0.08470891306118807,1.800262850839613
22.95963716506958,0.10053205490112305,1,1,0,0,0.0,0,0,0,0.0,1.0,4.0,-1003.0,0.0,-1.3601711967000762e-05,9.042352010947562e-20,0.02785099385881229,2.323362319016287,60,136,105.6,1.056,0.0,-0.08471028046924228,1.0648928006344638,1.367408054215783e-06,0.0031286164114672226,0.08471028046924228,1.8033914672510802
23.0608971118927,0.10125994682312012,1,1,0,0,0.0,0,0,0,0.0,-18.0,2.0,-1000.0,0.0,-1.0201283975250571e-05,6.78176400821067e-20,0.019776879403168583,1.6780356449296214,60,138,106.8,1.068,0.0,-0.08471131345071514,1.0673372438346935,1.0329814728614202e-06,0.0024444434184902166,0.08471131345071514,1.8058359106695705
23.163276195526123,0.10237908363342285,1,1,0,0,0.0,0,0,0,0.0,-8.0,2.0,-1031.0,0.0,-7.650962981437927e-06,5.086323006158003e-20,-0.038973945513052284,-4.0,60,145,111.0,1.11,0.0,-0.0847120967492941,1.0820082762044931,7.832985789528559e-07,0.01467103239071009,0.0847120967492941,1.8205069430602805
23.268704175949097,0.10542798042297363,1,1,0,0,0.0,0,0,0,0.0,-8.0,2.0,-1031.0,0.0,-5.7382222360784456e-06,3.8147422546185024e-20,-0.046068586720494686,-4.0,60,145,111.0,1.11,0.0,-0.08471270171847567,1.0902908148873665,6.049691815679504e-07,0.008282538704967252,0.08471270171847567,1.8287894817652477
23.374131202697754,0.10542702674865723,1,1,0,0,0.0,0,0,0,0.0,-13.0,-14.0,-991.0,0.0,-4.303666677058834e-06,2.861056690963877e-20,-0.04677766937151236,-4.0,60,148,112.8,1.128,0.0,-0.08471315544125754,1.1024155105723776,4.537227818795865e-07,0.012124695693500642,0.08471315544125754,1.8409141774587483
23.475937128067017,0.1018059253692627,1,1,0,0,0.0,0,0,0,0.0,-19.0,-22.0,-978.0,0.0,-3.227750007794126e-06,2.1457925182229077e-20,-0.01767450661465895,-1.2766191781437992,60,151,114.6,1.146,0.0,-0.08471348404533395,1.1187696846426163,3.2860407640412586e-07,0.016354174073539965,0.08471348404533395,1.8572683515322883
23.580769300460815,0.10483217239379883,1,1,0,0,0.0,0,0,0,0.0,-19.0,-22.0,-978.0,0.0,-2.4208125058455944e-06,1.6093443886671806e-20,0.030873186315535928,3.113608754990622,60,151,114.6,1.146,0.0,-0.08471373782436789,1.1316037126996754,2.537790339458695e-07,0.012834028059568235,0.08471373782436789,1.8701023795918565
23.685431241989136,0.10466194152832031,1,1,0,0,0.0,0,0,0,0.0,3.0,-27.0,-996.0,0.0,-1.8156093793841958e-06,1.2070082915003854e-20,0.034578914078967606,3.0088869924979127,60,154,116.39999999999999,1.164,0.0,-0.08471392784957059,1.1467336853898726,1.9002520270337862e-07,0.015129972691390537,0.08471392784957059,1.885232352283247
23.785760164260864,0.10032892227172852,1,1,0,0,0.0,0,0,0,0.0,3.0,-27.0,-996.0,0.0,-1.361707034538147e-06,9.052562186252892e-21,0.032805200601826505,2.925109582503654,60,154,116.39999999999999,1.164,0.0,-0.08471406446816981,1.1556149974866972,1.366185992250437e-07,0.008881312097875304,0.08471406446816981,1.8941136643811223
23.891249179840088,0.10548901557922363,1,1,0,0,0.0,0,0,0,0.0,11.0,-13.0,-1065.0,0.0,-1.0212802759036103e-06,6.789421639689669e-21,-0.0389150861715068,-4.0,60,158,118.8,1.188,0.0,-0.08471417220202075,1.1661059300131704,1.0773385093554976e-07,0.010490932527026434,0.08471417220202075,1.9046045969081487
23.991770029067993,0.10052084922790527,1,1,0,0,0.0,0,0,0,0.0,3.0,-2.0,-1061.0,0.0,-7.659602069277077e-07,5.092066229767252e-21,-0.04409984830831279,-4.0,60,160,120.0,1.2,0.0,-0.08471424919699122,1.1770037854862383,7.699497047515522e-08,0.010897855473339865,0.08471424919699122,1.9155024523814885
24.093032121658325,0.10126209259033203,1,0,0,0,0.0,0,0,1,0.0,-18.0,-5.0,-1061.0,0.0,-5.744701551957808e-07,0.0025,-0.042664821866964096,-4.0,70,164,126.39999999999999,1.264,0.0,-0.08471430736904127,1.2092100738063976,5.817205004581756e-08,0.032206288320211794,0.08471430736904127,1.9477087407017004
24.194583892822266,0.10155177116394043,1,0,0,0,0.0,0,0,2,0.0,-32.0,3.0,-1040.0,0.0,-4.3085261639683555e-07,0.006875,-0.038699690652272585,-4.0,70,166,127.6,1.276,0.0,-0.08471435112288758,1.2335680310062975,4.375384630571645e-08,0.024357957199939266,0.08471435112288758,1.9720666979016397
24.29681420326233,0.10223031044006348,1,0,0,0,0.0,0,0,3,0.0,-17.0,-6.0,-1042.0,0.0,-3.231394622976267e-07,0.01265625,-0.03337146824125265,-4.0,70,169,129.39999999999998,1.2939999999999998,0.0,-0.08471438415753513,1.255693873268892,3.303464754612157e-08,0.02212584226261917,0.08471438415753513,1.9941925401642588
24.402268171310425,0.1054539680480957,1,0,0,0,0.0,0,0,3,0.0,-42.0,-29.0,-1047.0,0.0,-2.4235459672322e-07,0.0169921875,-0.03022576529336355,-4.0,70,174,132.39999999999998,1.3239999999999998,0.0,-0.08471440971478902,1.2811038678288498,2.5557253899159563e-08,0.025409994559970592,0.08471440971478902,2.0196025347242292
24.50537109375,0.1031029224395752,1,0,0,0,0.0,0,0,3,0.0,-28.0,-2.0,-1003.0,0.0,-1.8176594754241503e-07,0.020244140625,-0.026044018942666437,-4.0,80,177,138.2,1.382,0.0,-0.08471442845538942,1.3198511920182734,1.874060039162151e-08,0.038747324189428146,0.08471442845538942,2.0583498589136573
24.61085605621338,0.1054849624633789,1,0,0,0,0.0,0,0,4,0.0,-13.0,0.0,-1020.0,0.0,-1.363244606568113e-07,0.02518310546875,-0.022133591957743205,-4.0,80,180,140.0,1.4,0.0,-0.08471444283557003,1.3505098585408586,1.4380180615224114e-08,0.03065866652258857,0.08471444283557003,2.089008525436246
24.71632409095764,0.1054680347442627,1,0,0,0,0.0,0,0,4,0.0,-18.0,-19.0,-1037.0,0.0,-1.0224334549260845e-07,0.0288873291015625,-0.018401976902073153,-4.0,90,183,145.8,1.4580000000000002,0.0,-0.08471445361897474,1.3923414229209525,1.0783404714784083e-08,0.04183156438009533,0.08471445361897474,2.130840089816341
24.81981921195984,0.10349512100219727,1,0,0,0,0.0,0,0,4,0.0,8.0,-2.0,-1011.0,0.0,-7.668250911945635e-08,0.031665496826171875,-0.014739298947531534,-4.0,90,186,147.6,1.476,0.0,-0.0847144615552403,1.424889586435734,7.93626556007023e-09,0.03254816351478248,0.0847144615552403,2.1633882533311235
24.923502922058105,0.1036837100982666,1,0,0,0,0.0,0,0,4,0.0,4.0,-29.0,-986.0,0.0,-5.7511881839592257e-08,0.0337491226196289,-0.012573203576393778,-4.0,100,190,154.0,1.54,0.0,-0.08471446751828558,1.470151570024668,5.963045283862048e-09,0.04526198358893425,0.08471446751828558,2.208650236920058
25.027118921279907,0.10361599922180176,1,0,0,0,0.0,0,0,4,0.0,-10.0,-4.0,-976.0,0.0,-4.3133911379694194e-08,0.03531184196472168,-0.010923062278110567,-4.0,100,193,155.8,1.558,0.0,-0.0847144719876489,1.5046118596072957,4.46936332795166e-09,0.0344602895826281,0.0847144719876489,2.243110526502686
25.12887215614319,0.10175323486328125,1,0,0,0,0.0,0,0,3,0.0,-6.0,0.0,-1003.0,0.0,-3.235043353477065e-08,0.03398388147354126,-0.01120810684693642,-4.0,110,196,161.6,1.6159999999999999,0.0,-0.08471447527941017,1.548482839087356,3.291761261392488e-09,0.04387097948006037,0.08471447527941017,2.2869815059827463
25.22930121421814,0.10042905807495117,1,0,0,0,0.0,0,0,3,0.0,-8.0,6.0,-966.0,0.0,-2.4262825151077985e-08,0.03298791110515595,0.020831110219713858,-0.7704143838985829,110,200,164.0,1.64,0.0,-0.08471447771610285,1.5863449327192263,2.436692676159997e-09,0.037862093631870396,0.08471447771610285,2.3248435996146166
25.329777002334595,0.10047578811645508,1,1,0,0,0.0,0,0,3,0.0,-15.0,6.0,-973.0,0.0,-1.819711886330849e-08,0.03224093332886696,0.07129026626453369,4.0,110,196,161.6,1.6159999999999999,0.0,-0.08471447954447271,1.6025047270443122,1.8283698592397316e-09,0.016159794325086067,0.08471447954447271,2.341003393939703
25.43214702606201,0.10237002372741699,1,1,0,0,0.0,0,0,3,0.0,-13.0,7.0,-970.0,0.0,-1.3647839147481367e-08,0.03168069999665022,0.07658966611440537,4.0,120,199,167.39999999999998,1.6739999999999997,0.0,-0.08471448094160233,1.6358071277890311,1.397129617355638e-09,0.033302400744718935,0.08471448094160233,2.374305794684422
25.53427004814148,0.10212302207946777,1,1,0,0,0.0,0,0,2,0.0,-5.0,-4.0,-982.0,0.0,-1.0235879360611025e-08,0.028760524997487665,0.07439264794096655,4.0,120,198,166.8,1.6680000000000001,0.0,-0.08471448198692126,1.653242597890354,1.0453189339464482e-09,0.01743547010132288,0.08471448198692126,2.391741264785745
25.635791063308716,0.10152101516723633,1,0,0,0,0.0,0,0,2,0.0,-11.0,-7.0,-983.0,0.0,-7.676909520458268e-09,0.026570393748115748,0.07196102523429536,4.0,120,200,168.0,1.68,0.0,-0.08471448276628891,1.668328892534769,7.793676478639449e-10,0.01508629464441504,0.08471448276628891,2.4068275594301602
25.737755060195923,0.10196399688720703,1,0,0,0,0.0,0,0,2,0.0,-22.0,5.0,-970.0,0.0,-5.7576821403437026e-09,0.02492779531108681,0.07041671705829049,4.0,120,204,170.39999999999998,1.7039999999999997,0.0,-0.0847144833533652,1.6869053174722246,5.870762838355328e-10,0.018576424937455604,0.0847144833533652,2.425403984367616
25.839837074279785,0.1020820140838623,1,0,0,0,0.0,0,0,2,0.0,0.0,-11.0,-985.0,0.0,-4.318261605257777e-09,0.02369584648331511,0.06920073917435757,4.0,120,207,172.2,1.722,0.0,-0.08471448379418205,1.7051816809819411,4.408168420057262e-10,0.018276363509716516,0.08471448379418205,2.443680347877333
25.942349910736084,0.10251283645629883,1,0,0,0,0.0,0,0,1,0.0,-11.0,2.0,-989.0,0.0,-3.238696203943332e-09,0.020271884862486333,0.06616990487619298,4.0,130,209,177.39999999999998,1.7739999999999998,0.0,-0.08471448412618998,1.7367789673713059,3.3200793428647863e-10,0.03159728638936477,0.08471448412618998,2.4752776342666976
